%time,field.header.seq,field.header.stamp,field.header.frame_id,field.status.status,field.status.service,field.latitude,field.longitude,field.altitude,field.position_covariance0,field.position_covariance1,field.position_covariance2,field.position_covariance3,field.position_covariance4,field.position_covariance5,field.position_covariance6,field.position_covariance7,field.position_covariance8,field.position_covariance_type
1580139861733254959,5749,1580139861730731964,/fgps,1,13,45.6216561271,9.28155230131,224.616616895,0.0,0.0,0.0,0.0,0.0,0.0,0.0,0.0,0.0,0
1580139861824036120,5750,1580139861825112104,/fgps,1,13,45.6216675227,9.28155313222,224.573795831,0.0,0.0,0.0,0.0,0.0,0.0,0.0,0.0,0.0,0
1580139861927097302,5751,1580139861928652048,/fgps,1,12,45.6216788037,9.28155403644,224.543036391,0.0,0.0,0.0,0.0,0.0,0.0,0.0,0.0,0.0,0
1580139862045383999,5752,1580139862046585083,/fgps,1,11,45.6216905829,9.28155530558,224.550781938,0.0,0.0,0.0,0.0,0.0,0.0,0.0,0.0,0.0,0
1580139862121071091,5753,1580139862121618986,/fgps,1,11,45.6217023349,9.28155663185,224.56813197,0.0,0.0,0.0,0.0,0.0,0.0,0.0,0.0,0.0,0
1580139862236319009,5754,1580139862233565092,/fgps,1,11,45.6217143498,9.28155757952,224.414933871,0.0,0.0,0.0,0.0,0.0,0.0,0.0,0.0,0.0,0
1580139862327174349,5755,1580139862327951908,/fgps,1,11,45.6217263434,9.28155858136,224.290747144,0.0,0.0,0.0,0.0,0.0,0.0,0.0,0.0,0.0,0
1580139862430408533,5756,1580139862428323030,/fgps,1,11,45.621738402,9.28155965738,224.179082617,0.0,0.0,0.0,0.0,0.0,0.0,0.0,0.0,0.0,0
1580139862530530506,5757,1580139862528309106,/fgps,1,11,45.6217503261,9.28156072282,224.1184733,0.0,0.0,0.0,0.0,0.0,0.0,0.0,0.0,0.0,0
1580139862627365222,5758,1580139862628959894,/fgps,1,11,45.6217622451,9.28156178808,224.052006332,0.0,0.0,0.0,0.0,0.0,0.0,0.0,0.0,0.0,0
1580139862727429138,5759,1580139862731652021,/fgps,1,11,45.6217740327,9.28156289839,224.003342211,0.0,0.0,0.0,0.0,0.0,0.0,0.0,0.0,0.0,0
1580139862833827620,5760,1580139862834690093,/fgps,1,12,45.6217856753,9.28156389239,223.967440973,0.0,0.0,0.0,0.0,0.0,0.0,0.0,0.0,0.0,0
1580139862927395880,5761,1580139862928476095,/fgps,1,12,45.6217972468,9.28156474038,223.930695972,0.0,0.0,0.0,0.0,0.0,0.0,0.0,0.0,0.0,0
1580139863031132224,5762,1580139863033174991,/fgps,1,12,45.6218088234,9.28156571029,223.878943717,0.0,0.0,0.0,0.0,0.0,0.0,0.0,0.0,0.0,0
1580139863131229571,5763,1580139863129097938,/fgps,1,12,45.6218202994,9.28156654731,223.87187066,0.0,0.0,0.0,0.0,0.0,0.0,0.0,0.0,0.0,0
1580139863234718519,5764,1580139863233294010,/fgps,1,12,45.6218317082,9.28156745447,223.844200836,0.0,0.0,0.0,0.0,0.0,0.0,0.0,0.0,0.0,0
1580139863328046832,5765,1580139863328819990,/fgps,1,12,45.6218430185,9.28156867079,223.856060679,0.0,0.0,0.0,0.0,0.0,0.0,0.0,0.0,0.0,0
1580139863424851680,5766,1580139863427392959,/fgps,1,12,45.6218542738,9.281569934,223.849344292,0.0,0.0,0.0,0.0,0.0,0.0,0.0,0.0,0.0,0
1580139863527643982,5767,1580139863528740882,/fgps,1,12,45.6218654127,9.28157110211,223.838472315,0.0,0.0,0.0,0.0,0.0,0.0,0.0,0.0,0.0,0
1580139863630865890,5768,1580139863628839969,/fgps,1,12,45.6218766007,9.28157229192,223.838337872,0.0,0.0,0.0,0.0,0.0,0.0,0.0,0.0,0.0,0
1580139863730894072,5769,1580139863731475114,/fgps,1,12,45.6218877915,9.28157345448,223.83163152,0.0,0.0,0.0,0.0,0.0,0.0,0.0,0.0,0.0,0
1580139863825056527,5770,1580139863827213048,/fgps,1,12,45.6218988801,9.28157452438,223.837427605,0.0,0.0,0.0,0.0,0.0,0.0,0.0,0.0,0.0,0
1580139863928002573,5771,1580139863929815053,/fgps,1,12,45.6219100456,9.28157555966,223.863811522,0.0,0.0,0.0,0.0,0.0,0.0,0.0,0.0,0.0,0
1580139864046253900,5772,1580139864048837900,/fgps,1,12,45.6219211706,9.28157658666,223.878411506,0.0,0.0,0.0,0.0,0.0,0.0,0.0,0.0,0.0,0
1580139864125239116,5773,1580139864127561092,/fgps,1,12,45.6219323304,9.28157788195,223.890582348,0.0,0.0,0.0,0.0,0.0,0.0,0.0,0.0,0.0,0
1580139864234282830,5774,1580139864232079029,/fgps,1,12,45.6219432925,9.28157913,223.927627769,0.0,0.0,0.0,0.0,0.0,0.0,0.0,0.0,0.0,0
1580139864325200494,5775,1580139864326922893,/fgps,1,12,45.621954082,9.28158037235,223.950070947,0.0,0.0,0.0,0.0,0.0,0.0,0.0,0.0,0.0,0
1580139864428461404,5776,1580139864428483963,/fgps,1,12,45.6219648672,9.28158171193,223.95744091,0.0,0.0,0.0,0.0,0.0,0.0,0.0,0.0,0.0,0
1580139864527206841,5777,1580139864528379917,/fgps,1,12,45.621975621,9.28158299089,223.967336495,0.0,0.0,0.0,0.0,0.0,0.0,0.0,0.0,0.0,0
1580139864627939009,5778,1580139864629513978,/fgps,1,12,45.6219864079,9.28158434525,223.978092954,0.0,0.0,0.0,0.0,0.0,0.0,0.0,0.0,0.0,0
1580139864729099928,5779,1580139864731760978,/fgps,1,12,45.6219971069,9.28158569276,223.984841929,0.0,0.0,0.0,0.0,0.0,0.0,0.0,0.0,0.0,0
1580139864822839432,5780,1580139864824450016,/fgps,1,12,45.6220078549,9.28158697321,223.983508143,0.0,0.0,0.0,0.0,0.0,0.0,0.0,0.0,0.0,0
1580139864931854518,5781,1580139864930356025,/fgps,1,11,45.6220186488,9.28158819968,223.990944152,0.0,0.0,0.0,0.0,0.0,0.0,0.0,0.0,0.0,0
1580139865044199645,5782,1580139865041626930,/fgps,1,11,45.6220294259,9.28158945337,224.044956535,0.0,0.0,0.0,0.0,0.0,0.0,0.0,0.0,0.0,0
1580139865132132901,5783,1580139865134217023,/fgps,1,11,45.6220400525,9.28159058883,224.074471589,0.0,0.0,0.0,0.0,0.0,0.0,0.0,0.0,0.0,0
1580139865234599670,5784,1580139865235857009,/fgps,1,10,45.622050709,9.28159190871,224.038515391,0.0,0.0,0.0,0.0,0.0,0.0,0.0,0.0,0.0,0
1580139865338225049,5785,1580139865337618112,/fgps,1,10,45.6220612749,9.28159314579,224.003628314,0.0,0.0,0.0,0.0,0.0,0.0,0.0,0.0,0.0,0
1580139865432117880,5786,1580139865434983968,/fgps,1,10,45.6220717664,9.2815943508,223.982792694,0.0,0.0,0.0,0.0,0.0,0.0,0.0,0.0,0.0,0
1580139865538684030,5787,1580139865539041042,/fgps,1,10,45.6220822187,9.28159555474,223.946177249,0.0,0.0,0.0,0.0,0.0,0.0,0.0,0.0,0.0,0
1580139865641347619,5788,1580139865638093948,/fgps,1,10,45.6220926661,9.28159676715,223.907520189,0.0,0.0,0.0,0.0,0.0,0.0,0.0,0.0,0.0,0
1580139865741085655,5789,1580139865738992929,/fgps,1,10,45.6221030994,9.28159788895,223.884873888,0.0,0.0,0.0,0.0,0.0,0.0,0.0,0.0,0.0,0
1580139865841131500,5790,1580139865841365098,/fgps,1,10,45.6221134063,9.28159894982,223.867150979,0.0,0.0,0.0,0.0,0.0,0.0,0.0,0.0,0.0,0
1580139865938412061,5791,1580139865940229892,/fgps,1,10,45.6221237234,9.2816001299,223.846103104,0.0,0.0,0.0,0.0,0.0,0.0,0.0,0.0,0.0,0
1580139866059532250,5792,1580139866057710886,/fgps,1,10,45.6221340119,9.28160120444,223.835453363,0.0,0.0,0.0,0.0,0.0,0.0,0.0,0.0,0.0,0
1580139866135334276,5793,1580139866135179042,/fgps,1,10,45.6221441641,9.28160219506,223.810136907,0.0,0.0,0.0,0.0,0.0,0.0,0.0,0.0,0.0,0
1580139866238247730,5794,1580139866241282939,/fgps,1,10,45.6221541074,9.28160303604,223.795048172,0.0,0.0,0.0,0.0,0.0,0.0,0.0,0.0,0.0,0
1580139866335240984,5795,1580139866335432052,/fgps,1,10,45.6221638514,9.28160388264,223.794733473,0.0,0.0,0.0,0.0,0.0,0.0,0.0,0.0,0.0,0
1580139866435144326,5796,1580139866434452056,/fgps,1,10,45.6221733435,9.28160469059,223.815820552,0.0,0.0,0.0,0.0,0.0,0.0,0.0,0.0,0.0,0
1580139866528906658,5797,1580139866530267000,/fgps,1,10,45.6221827368,9.28160540938,223.86247657,0.0,0.0,0.0,0.0,0.0,0.0,0.0,0.0,0.0,0
1580139866628836850,5798,1580139866628386020,/fgps,1,10,45.6221920814,9.28160616513,223.883959514,0.0,0.0,0.0,0.0,0.0,0.0,0.0,0.0,0.0,0
1580139866734796322,5799,1580139866731359004,/fgps,1,10,45.6222012755,9.28160687068,223.909155418,0.0,0.0,0.0,0.0,0.0,0.0,0.0,0.0,0.0,0
1580139866840717157,5800,1580139866841537952,/fgps,1,10,45.622210518,9.28160751471,223.92663082,0.0,0.0,0.0,0.0,0.0,0.0,0.0,0.0,0.0,0
1580139866931496528,5801,1580139866933711051,/fgps,1,10,45.6222197327,9.2816082202,223.905035773,0.0,0.0,0.0,0.0,0.0,0.0,0.0,0.0,0.0,0
1580139867043658386,5802,1580139867043281078,/fgps,1,10,45.6222289133,9.28160893262,223.88844045,0.0,0.0,0.0,0.0,0.0,0.0,0.0,0.0,0.0,0
1580139867143597555,5803,1580139867144560098,/fgps,1,10,45.6222379254,9.28160960282,223.890992015,0.0,0.0,0.0,0.0,0.0,0.0,0.0,0.0,0.0,0
1580139867243574463,5804,1580139867244029045,/fgps,1,10,45.6222467626,9.28161029852,223.883548869,0.0,0.0,0.0,0.0,0.0,0.0,0.0,0.0,0.0,0
1580139867332005377,5805,1580139867336131095,/fgps,1,10,45.6222555656,9.28161115421,223.873501568,0.0,0.0,0.0,0.0,0.0,0.0,0.0,0.0,0.0,0
1580139867440376282,5806,1580139867437696933,/fgps,1,10,45.6222640512,9.28161220097,223.899411939,0.0,0.0,0.0,0.0,0.0,0.0,0.0,0.0,0.0,0
1580139867531339341,5807,1580139867531913042,/fgps,1,9,45.6222725002,9.28161310061,223.879558264,0.0,0.0,0.0,0.0,0.0,0.0,0.0,0.0,0.0,0
1580139867628284207,5808,1580139867632924079,/fgps,1,9,45.6222808927,9.28161393777,223.88991761,0.0,0.0,0.0,0.0,0.0,0.0,0.0,0.0,0.0,0
1580139867731457441,5809,1580139867734167098,/fgps,1,9,45.6222893179,9.28161483087,223.905763961,0.0,0.0,0.0,0.0,0.0,0.0,0.0,0.0,0.0,0
1580139867837614129,5810,1580139867839449882,/fgps,1,9,45.6222977206,9.28161572755,223.918401035,0.0,0.0,0.0,0.0,0.0,0.0,0.0,0.0,0.0,0
1580139867930078865,5811,1580139867932687044,/fgps,1,9,45.6223061253,9.28161651639,223.920562364,0.0,0.0,0.0,0.0,0.0,0.0,0.0,0.0,0.0,0
1580139868052598919,5812,1580139868052845001,/fgps,1,9,45.622314371,9.28161717239,223.93579563,0.0,0.0,0.0,0.0,0.0,0.0,0.0,0.0,0.0,0
1580139868131411917,5813,1580139868132064104,/fgps,1,9,45.6223226432,9.2816179479,223.947709759,0.0,0.0,0.0,0.0,0.0,0.0,0.0,0.0,0.0,0
1580139868228549361,5814,1580139868233844041,/fgps,1,10,45.622330988,9.28161891893,223.878381615,0.0,0.0,0.0,0.0,0.0,0.0,0.0,0.0,0.0,0
1580139868331028041,5815,1580139868331605911,/fgps,1,11,45.6223392289,9.28161992414,223.846318373,0.0,0.0,0.0,0.0,0.0,0.0,0.0,0.0,0.0,0
1580139868424769622,5816,1580139868427436113,/fgps,1,11,45.6223473549,9.28162092993,223.824983698,0.0,0.0,0.0,0.0,0.0,0.0,0.0,0.0,0.0,0
1580139868531874455,5817,1580139868534262895,/fgps,1,11,45.622355551,9.28162183155,223.821658034,0.0,0.0,0.0,0.0,0.0,0.0,0.0,0.0,0.0,0
1580139868630550271,5818,1580139868629225015,/fgps,1,11,45.6223637014,9.28162269389,223.816669962,0.0,0.0,0.0,0.0,0.0,0.0,0.0,0.0,0.0,0
1580139868723944821,5819,1580139868728281974,/fgps,1,11,45.6223716785,9.28162350853,223.821173317,0.0,0.0,0.0,0.0,0.0,0.0,0.0,0.0,0.0,0
1580139868827630357,5820,1580139868824255943,/fgps,1,11,45.6223795961,9.28162431751,223.815570498,0.0,0.0,0.0,0.0,0.0,0.0,0.0,0.0,0.0,0
1580139868930709844,5821,1580139868929281949,/fgps,1,11,45.6223873962,9.281624991,223.826363462,0.0,0.0,0.0,0.0,0.0,0.0,0.0,0.0,0.0,0
1580139869033926786,5822,1580139869034126043,/fgps,1,10,45.6223950969,9.2816257218,223.813585127,0.0,0.0,0.0,0.0,0.0,0.0,0.0,0.0,0.0,0
1580139869130674007,5823,1580139869128531932,/fgps,1,10,45.6224027097,9.28162645615,223.782256361,0.0,0.0,0.0,0.0,0.0,0.0,0.0,0.0,0.0,0
1580139869233919734,5824,1580139869234461069,/fgps,1,10,45.6224100192,9.28162731778,223.851836286,0.0,0.0,0.0,0.0,0.0,0.0,0.0,0.0,0.0,0
1580139869333893410,5825,1580139869336266994,/fgps,1,10,45.6224172573,9.28162837983,223.879990039,0.0,0.0,0.0,0.0,0.0,0.0,0.0,0.0,0.0,0
1580139869430777405,5826,1580139869433413028,/fgps,1,12,45.6224245114,9.2816290775,223.932179438,0.0,0.0,0.0,0.0,0.0,0.0,0.0,0.0,0.0,0
1580139869529773474,5827,1580139869533272981,/fgps,1,12,45.6224316513,9.28162977698,224.012017952,0.0,0.0,0.0,0.0,0.0,0.0,0.0,0.0,0.0,0
1580139869636547031,5828,1580139869636260986,/fgps,1,12,45.6224387563,9.28163035886,224.092074068,0.0,0.0,0.0,0.0,0.0,0.0,0.0,0.0,0.0,0
1580139869731694646,5829,1580139869735527038,/fgps,1,12,45.6224458143,9.28163091502,224.171999839,0.0,0.0,0.0,0.0,0.0,0.0,0.0,0.0,0.0,0
1580139869836830782,5830,1580139869837477922,/fgps,1,12,45.6224528774,9.28163149259,224.23231635,0.0,0.0,0.0,0.0,0.0,0.0,0.0,0.0,0.0,0
1580139869930691390,5831,1580139869933407068,/fgps,1,12,45.622459923,9.28163207556,224.296949624,0.0,0.0,0.0,0.0,0.0,0.0,0.0,0.0,0.0,0
1580139870052132521,5832,1580139870051870107,/fgps,1,12,45.6224669544,9.28163267992,224.363994098,0.0,0.0,0.0,0.0,0.0,0.0,0.0,0.0,0.0,0
1580139870134029641,5833,1580139870134161949,/fgps,1,12,45.6224737909,9.28163316565,224.430067154,0.0,0.0,0.0,0.0,0.0,0.0,0.0,0.0,0.0,0
1580139870234053426,5834,1580139870235025882,/fgps,1,12,45.6224805705,9.28163364899,224.476293456,0.0,0.0,0.0,0.0,0.0,0.0,0.0,0.0,0.0,0
1580139870331043312,5835,1580139870333178043,/fgps,1,12,45.6224872428,9.28163427771,224.531955403,0.0,0.0,0.0,0.0,0.0,0.0,0.0,0.0,0.0,0
1580139870428147182,5836,1580139870429231882,/fgps,1,12,45.6224938036,9.28163509225,224.605439796,0.0,0.0,0.0,0.0,0.0,0.0,0.0,0.0,0.0,0
1580139870528284970,5837,1580139870528633117,/fgps,1,12,45.6225001123,9.28163603632,224.672851251,0.0,0.0,0.0,0.0,0.0,0.0,0.0,0.0,0.0,0
1580139870637269745,5838,1580139870634612083,/fgps,1,12,45.6225063561,9.28163689907,224.754159925,0.0,0.0,0.0,0.0,0.0,0.0,0.0,0.0,0.0,0
1580139870731783649,5839,1580139870734090089,/fgps,1,12,45.622512545,9.28163768003,224.808312689,0.0,0.0,0.0,0.0,0.0,0.0,0.0,0.0,0.0,0
1580139870837143055,5840,1580139870837498903,/fgps,1,12,45.6225187023,9.2816383608,224.867740278,0.0,0.0,0.0,0.0,0.0,0.0,0.0,0.0,0.0,0
1580139870937038839,5841,1580139870936654090,/fgps,1,12,45.6225248614,9.28163913802,224.910864466,0.0,0.0,0.0,0.0,0.0,0.0,0.0,0.0,0.0,0
1580139871040035460,5842,1580139871036451101,/fgps,1,12,45.6225309033,9.2816398346,224.94959221,0.0,0.0,0.0,0.0,0.0,0.0,0.0,0.0,0.0,0
1580139871133890813,5843,1580139871133779048,/fgps,1,12,45.622536842,9.28164058527,224.992745325,0.0,0.0,0.0,0.0,0.0,0.0,0.0,0.0,0.0,0
1580139871240242183,5844,1580139871237628936,/fgps,1,12,45.6225426976,9.28164128854,225.038429991,0.0,0.0,0.0,0.0,0.0,0.0,0.0,0.0,0.0,0
1580139871328217757,5845,1580139871329713106,/fgps,1,12,45.622548459,9.28164186634,225.088619829,0.0,0.0,0.0,0.0,0.0,0.0,0.0,0.0,0.0,0
1580139871434412324,5846,1580139871436691999,/fgps,1,14,45.6225535372,9.28164163981,225.24946891,0.0,0.0,0.0,0.0,0.0,0.0,0.0,0.0,0.0,0
1580139871528332319,5847,1580139871529761075,/fgps,1,14,45.6225585008,9.2816414238,225.42182192,0.0,0.0,0.0,0.0,0.0,0.0,0.0,0.0,0.0,0
1580139871628378196,5848,1580139871629175901,/fgps,1,14,45.6225634418,9.28164128371,225.57247143,0.0,0.0,0.0,0.0,0.0,0.0,0.0,0.0,0.0,0
1580139871731408457,5849,1580139871729727029,/fgps,1,13,45.6225683662,9.28164121566,225.682160459,0.0,0.0,0.0,0.0,0.0,0.0,0.0,0.0,0.0,0
1580139871822729345,5850,1580139871827110052,/fgps,1,13,45.6225731738,9.28164110945,225.787286702,0.0,0.0,0.0,0.0,0.0,0.0,0.0,0.0,0.0,0
1580139871928646425,5851,1580139871929389953,/fgps,1,13,45.6225778575,9.2816409443,225.900131804,0.0,0.0,0.0,0.0,0.0,0.0,0.0,0.0,0.0,0
1580139872052936937,5852,1580139872054299116,/fgps,1,13,45.6225825379,9.28164100828,225.993559695,0.0,0.0,0.0,0.0,0.0,0.0,0.0,0.0,0.0,0
1580139872128698933,5853,1580139872129403114,/fgps,1,13,45.6225871218,9.28164124982,226.063346154,0.0,0.0,0.0,0.0,0.0,0.0,0.0,0.0,0.0,0
1580139872234792992,5854,1580139872235867977,/fgps,1,13,45.6225915903,9.28164167597,226.126825546,0.0,0.0,0.0,0.0,0.0,0.0,0.0,0.0,0.0,0
1580139872328774179,5855,1580139872329960107,/fgps,1,13,45.6225960501,9.28164222364,226.194530017,0.0,0.0,0.0,0.0,0.0,0.0,0.0,0.0,0.0,0
1580139872431807380,5856,1580139872432455062,/fgps,1,13,45.6226003794,9.28164270228,226.254118504,0.0,0.0,0.0,0.0,0.0,0.0,0.0,0.0,0.0,0
1580139872528754988,5857,1580139872531266927,/fgps,1,13,45.6226045714,9.2816431278,226.307748621,0.0,0.0,0.0,0.0,0.0,0.0,0.0,0.0,0.0,0
1580139872631955822,5858,1580139872628720998,/fgps,1,13,45.622608719,9.28164342619,226.3770871,0.0,0.0,0.0,0.0,0.0,0.0,0.0,0.0,0.0,0
1580139872734878704,5859,1580139872734376907,/fgps,1,13,45.6226127564,9.28164374839,226.439520185,0.0,0.0,0.0,0.0,0.0,0.0,0.0,0.0,0.0,0
1580139872832049982,5860,1580139872833584070,/fgps,1,13,45.6226167181,9.28164417365,226.481336353,0.0,0.0,0.0,0.0,0.0,0.0,0.0,0.0,0.0,0
1580139872929091743,5861,1580139872929934978,/fgps,1,13,45.6226205708,9.28164452184,226.537794491,0.0,0.0,0.0,0.0,0.0,0.0,0.0,0.0,0.0,0
1580139873032073482,5862,1580139873031969070,/fgps,1,13,45.6226243188,9.28164484899,226.592923796,0.0,0.0,0.0,0.0,0.0,0.0,0.0,0.0,0.0,0
1580139873129136110,5863,1580139873130971908,/fgps,1,13,45.622628007,9.28164517812,226.657386732,0.0,0.0,0.0,0.0,0.0,0.0,0.0,0.0,0.0,0
1580139873238245612,5864,1580139873236043930,/fgps,1,13,45.6226315857,9.28164547075,226.721335161,0.0,0.0,0.0,0.0,0.0,0.0,0.0,0.0,0.0,0
1580139873335316090,5865,1580139873336743116,/fgps,1,13,45.6226351063,9.2816457301,226.778583357,0.0,0.0,0.0,0.0,0.0,0.0,0.0,0.0,0.0,0
1580139873432298154,5866,1580139873432816028,/fgps,1,13,45.6226385672,9.28164603019,226.83992917,0.0,0.0,0.0,0.0,0.0,0.0,0.0,0.0,0.0,0
1580139873532382549,5867,1580139873534584999,/fgps,1,13,45.6226419522,9.28164623406,226.896066556,0.0,0.0,0.0,0.0,0.0,0.0,0.0,0.0,0.0,0
1580139873629396324,5868,1580139873629367113,/fgps,1,13,45.6226453633,9.28164650833,226.940389125,0.0,0.0,0.0,0.0,0.0,0.0,0.0,0.0,0.0,0
1580139873729463799,5869,1580139873731535911,/fgps,1,13,45.6226486331,9.28164675688,226.978072229,0.0,0.0,0.0,0.0,0.0,0.0,0.0,0.0,0.0,0
1580139873828571517,5870,1580139873827048063,/fgps,1,13,45.6226518093,9.28164699506,227.02822322,0.0,0.0,0.0,0.0,0.0,0.0,0.0,0.0,0.0,0
1580139873930040870,5871,1580139873930131912,/fgps,1,13,45.622654957,9.28164729248,227.060025512,0.0,0.0,0.0,0.0,0.0,0.0,0.0,0.0,0.0,0
1580139874050960393,5872,1580139874048357009,/fgps,1,13,45.6226579906,9.2816475377,227.090661879,0.0,0.0,0.0,0.0,0.0,0.0,0.0,0.0,0.0,0
1580139874129789445,5873,1580139874129364013,/fgps,1,13,45.622660899,9.28164779764,227.115662781,0.0,0.0,0.0,0.0,0.0,0.0,0.0,0.0,0.0,0
1580139874229759129,5874,1580139874229532957,/fgps,1,13,45.6226636177,9.28164794148,227.159101166,0.0,0.0,0.0,0.0,0.0,0.0,0.0,0.0,0.0,0
1580139874329776158,5875,1580139874331970930,/fgps,1,13,45.6226662826,9.28164812686,227.195130093,0.0,0.0,0.0,0.0,0.0,0.0,0.0,0.0,0.0,0
1580139874426945847,5876,1580139874430285930,/fgps,1,13,45.6226688523,9.28164836894,227.222332494,0.0,0.0,0.0,0.0,0.0,0.0,0.0,0.0,0.0,0
1580139874531367704,5877,1580139874533746957,/fgps,1,14,45.6226712078,9.28164854474,227.281946751,0.0,0.0,0.0,0.0,0.0,0.0,0.0,0.0,0.0,0
1580139874630470988,5878,1580139874631789922,/fgps,1,14,45.62267356,9.28164871149,227.324880579,0.0,0.0,0.0,0.0,0.0,0.0,0.0,0.0,0.0,0
1580139874730548036,5879,1580139874730655908,/fgps,1,14,45.6226758361,9.28164887081,227.357216119,0.0,0.0,0.0,0.0,0.0,0.0,0.0,0.0,0.0,0
1580139874827727309,5880,1580139874828020095,/fgps,1,14,45.6226780624,9.28164904213,227.387324912,0.0,0.0,0.0,0.0,0.0,0.0,0.0,0.0,0.0,0
1580139874930887407,5881,1580139874933068037,/fgps,1,14,45.6226802065,9.2816492213,227.416732172,0.0,0.0,0.0,0.0,0.0,0.0,0.0,0.0,0.0,0
1580139875031016169,5882,1580139875032695055,/fgps,1,14,45.6226822669,9.28164944712,227.448713696,0.0,0.0,0.0,0.0,0.0,0.0,0.0,0.0,0.0,0
1580139875134057126,5883,1580139875130135059,/fgps,1,14,45.622684211,9.28164958753,227.461629934,0.0,0.0,0.0,0.0,0.0,0.0,0.0,0.0,0.0,0
1580139875228182751,5884,1580139875229373931,/fgps,1,14,45.6226860654,9.281649759,227.491753776,0.0,0.0,0.0,0.0,0.0,0.0,0.0,0.0,0.0,0
1580139875331467213,5885,1580139875330868959,/fgps,1,14,45.6226878855,9.28164995962,227.497719133,0.0,0.0,0.0,0.0,0.0,0.0,0.0,0.0,0.0,0
1580139875430223333,5886,1580139875433459997,/fgps,1,14,45.6226894934,9.28165012447,227.505985877,0.0,0.0,0.0,0.0,0.0,0.0,0.0,0.0,0.0,0
1580139875528961068,5887,1580139875529896974,/fgps,1,13,45.6226909162,9.281650228,227.533250512,0.0,0.0,0.0,0.0,0.0,0.0,0.0,0.0,0.0,0
1580139875631979997,5888,1580139875631915092,/fgps,1,13,45.6226921328,9.28165030094,227.553059166,0.0,0.0,0.0,0.0,0.0,0.0,0.0,0.0,0.0,0
1580139875731897417,5889,1580139875732007026,/fgps,1,13,45.6226932791,9.28165032654,227.567720826,0.0,0.0,0.0,0.0,0.0,0.0,0.0,0.0,0.0,0
1580139875835305156,5890,1580139875836050987,/fgps,1,13,45.6226942762,9.28165030405,227.582557358,0.0,0.0,0.0,0.0,0.0,0.0,0.0,0.0,0.0,0
1580139875932380340,5891,1580139875929593086,/fgps,1,13,45.6226951355,9.28165029918,227.600612834,0.0,0.0,0.0,0.0,0.0,0.0,0.0,0.0,0.0,0
1580139876050715775,5892,1580139876047764062,/fgps,1,13,45.6226957857,9.28165023687,227.614165389,0.0,0.0,0.0,0.0,0.0,0.0,0.0,0.0,0.0,0
1580139876132643163,5893,1580139876132678031,/fgps,1,13,45.6226963052,9.28165017542,227.618340778,0.0,0.0,0.0,0.0,0.0,0.0,0.0,0.0,0.0,0
1580139876232636308,5894,1580139876233740091,/fgps,1,13,45.6226967277,9.28165005207,227.636726902,0.0,0.0,0.0,0.0,0.0,0.0,0.0,0.0,0.0,0
1580139876329712376,5895,1580139876332324028,/fgps,1,13,45.6226970309,9.28164994487,227.640435678,0.0,0.0,0.0,0.0,0.0,0.0,0.0,0.0,0.0,0
1580139876429692394,5896,1580139876432300090,/fgps,1,13,45.6226971271,9.28164980354,227.658590815,0.0,0.0,0.0,0.0,0.0,0.0,0.0,0.0,0.0,0
1580139876529872445,5897,1580139876530312061,/fgps,1,13,45.6226971859,9.281649702,227.689227163,0.0,0.0,0.0,0.0,0.0,0.0,0.0,0.0,0.0,0
1580139876632944994,5898,1580139876635591030,/fgps,1,13,45.6226970315,9.28164958168,227.719899564,0.0,0.0,0.0,0.0,0.0,0.0,0.0,0.0,0.0,0
1580139876736149116,5899,1580139876737180948,/fgps,1,13,45.6226969117,9.28164948048,227.760557097,0.0,0.0,0.0,0.0,0.0,0.0,0.0,0.0,0.0,0
1580139876823048686,5900,1580139876826690912,/fgps,1,13,45.6226967612,9.28164938372,227.794942215,0.0,0.0,0.0,0.0,0.0,0.0,0.0,0.0,0.0,0
1580139876933283569,5901,1580139876932605981,/fgps,1,13,45.6226966714,9.28164923222,227.825465314,0.0,0.0,0.0,0.0,0.0,0.0,0.0,0.0,0.0,0
1580139877033306537,5902,1580139877032474994,/fgps,1,13,45.6226965883,9.28164916795,227.85584062,0.0,0.0,0.0,0.0,0.0,0.0,0.0,0.0,0.0,0
1580139877133482032,5903,1580139877130191087,/fgps,1,13,45.6226964671,9.28164907842,227.894541312,0.0,0.0,0.0,0.0,0.0,0.0,0.0,0.0,0.0,0
1580139877230479861,5904,1580139877233724117,/fgps,1,13,45.6226962998,9.28164898957,227.941688511,0.0,0.0,0.0,0.0,0.0,0.0,0.0,0.0,0.0,0
1580139877333382796,5905,1580139877331029891,/fgps,1,13,45.6226961673,9.28164891468,227.972799798,0.0,0.0,0.0,0.0,0.0,0.0,0.0,0.0,0.0,0
1580139877436491903,5906,1580139877434377908,/fgps,1,13,45.6226960192,9.28164882743,228.000640903,0.0,0.0,0.0,0.0,0.0,0.0,0.0,0.0,0.0,0
1580139877527527209,5907,1580139877529334068,/fgps,1,13,45.622695914,9.28164875698,228.024111811,0.0,0.0,0.0,0.0,0.0,0.0,0.0,0.0,0.0,0
1580139877630687802,5908,1580139877630183935,/fgps,1,13,45.6226957757,9.28164864583,228.041404184,0.0,0.0,0.0,0.0,0.0,0.0,0.0,0.0,0.0,0
1580139877733870404,5909,1580139877736376047,/fgps,1,13,45.6226956181,9.28164850688,228.058541958,0.0,0.0,0.0,0.0,0.0,0.0,0.0,0.0,0.0,0
1580139877827695481,5910,1580139877829632997,/fgps,1,13,45.6226955104,9.28164846834,228.075640174,0.0,0.0,0.0,0.0,0.0,0.0,0.0,0.0,0.0,0
1580139877927867969,5911,1580139877929785013,/fgps,1,13,45.622695363,9.28164837473,228.092646327,0.0,0.0,0.0,0.0,0.0,0.0,0.0,0.0,0.0,0
1580139878046284656,5912,1580139878046701908,/fgps,1,13,45.6226952253,9.28164825009,228.115110237,0.0,0.0,0.0,0.0,0.0,0.0,0.0,0.0,0.0,0
1580139878128271215,5913,1580139878130034923,/fgps,1,13,45.6226950541,9.28164816435,228.1345872,0.0,0.0,0.0,0.0,0.0,0.0,0.0,0.0,0.0,0
1580139878231387924,5914,1580139878234600067,/fgps,1,13,45.6226948731,9.28164807053,228.148139035,0.0,0.0,0.0,0.0,0.0,0.0,0.0,0.0,0.0,0
1580139878331645026,5915,1580139878328913927,/fgps,1,13,45.622694627,9.28164788689,228.161372889,0.0,0.0,0.0,0.0,0.0,0.0,0.0,0.0,0.0,0
1580139878431654998,5916,1580139878433867931,/fgps,1,13,45.6226944758,9.28164783128,228.183925798,0.0,0.0,0.0,0.0,0.0,0.0,0.0,0.0,0.0,0
1580139878528649571,5917,1580139878529936075,/fgps,1,13,45.6226943742,9.28164777201,228.206225393,0.0,0.0,0.0,0.0,0.0,0.0,0.0,0.0,0.0,0
1580139878631845251,5918,1580139878629631996,/fgps,1,13,45.6226942851,9.28164779859,228.224732566,0.0,0.0,0.0,0.0,0.0,0.0,0.0,0.0,0.0,0
1580139878732059405,5919,1580139878733902931,/fgps,1,13,45.622694157,9.28164775725,228.266862312,0.0,0.0,0.0,0.0,0.0,0.0,0.0,0.0,0.0,0
1580139878826109999,5920,1580139878824408054,/fgps,1,13,45.6226940437,9.28164773212,228.267541818,0.0,0.0,0.0,0.0,0.0,0.0,0.0,0.0,0.0,0
1580139878932380479,5921,1580139878932091951,/fgps,1,13,45.6226939818,9.28164774843,228.303046863,0.0,0.0,0.0,0.0,0.0,0.0,0.0,0.0,0.0,0
1580139879029805284,5922,1580139879033487081,/fgps,1,13,45.6226938764,9.28164776094,228.319939468,0.0,0.0,0.0,0.0,0.0,0.0,0.0,0.0,0.0,0
1580139879132519963,5923,1580139879129345893,/fgps,1,13,45.6226938249,9.28164770677,228.341338082,0.0,0.0,0.0,0.0,0.0,0.0,0.0,0.0,0.0,0
1580139879232608222,5924,1580139879232728958,/fgps,1,13,45.6226937454,9.28164765527,228.358410628,0.0,0.0,0.0,0.0,0.0,0.0,0.0,0.0,0.0,0
1580139879329698834,5925,1580139879329020977,/fgps,1,13,45.6226936924,9.2816476502,228.358046701,0.0,0.0,0.0,0.0,0.0,0.0,0.0,0.0,0.0,0
1580139879432591035,5926,1580139879433669090,/fgps,1,13,45.6226935781,9.2816475739,228.372762213,0.0,0.0,0.0,0.0,0.0,0.0,0.0,0.0,0.0,0
1580139879535109767,5927,1580139879535475015,/fgps,1,13,45.6226935024,9.28164751477,228.379403621,0.0,0.0,0.0,0.0,0.0,0.0,0.0,0.0,0.0,0
1580139879632782994,5928,1580139879636267900,/fgps,1,13,45.6226934126,9.28164746247,228.390481466,0.0,0.0,0.0,0.0,0.0,0.0,0.0,0.0,0.0,0
1580139879732888803,5929,1580139879733822107,/fgps,1,13,45.6226933676,9.28164741912,228.396537841,0.0,0.0,0.0,0.0,0.0,0.0,0.0,0.0,0.0,0
1580139879832970213,5930,1580139879832660913,/fgps,1,13,45.6226933701,9.28164739471,228.40799779,0.0,0.0,0.0,0.0,0.0,0.0,0.0,0.0,0.0,0
1580139879930070713,5931,1580139879930214881,/fgps,1,13,45.6226933392,9.28164735242,228.411822701,0.0,0.0,0.0,0.0,0.0,0.0,0.0,0.0,0.0,0
1580139880051182545,5932,1580139880055018901,/fgps,1,14,45.6226933087,9.28164730054,228.418158212,0.0,0.0,0.0,0.0,0.0,0.0,0.0,0.0,0.0,0
1580139880132950080,5933,1580139880129748106,/fgps,1,14,45.6226932529,9.28164719105,228.414258364,0.0,0.0,0.0,0.0,0.0,0.0,0.0,0.0,0.0,0
1580139880229972108,5934,1580139880231915950,/fgps,1,14,45.6226931879,9.28164711575,228.423183706,0.0,0.0,0.0,0.0,0.0,0.0,0.0,0.0,0.0,0
1580139880330059470,5935,1580139880330416917,/fgps,1,14,45.6226931741,9.28164705109,228.420780727,0.0,0.0,0.0,0.0,0.0,0.0,0.0,0.0,0.0,0
1580139880430590444,5936,1580139880432950973,/fgps,1,14,45.6226931304,9.28164699353,228.434988016,0.0,0.0,0.0,0.0,0.0,0.0,0.0,0.0,0.0,0
1580139880530355500,5937,1580139880531621932,/fgps,1,14,45.6226930646,9.2816469032,228.446141326,0.0,0.0,0.0,0.0,0.0,0.0,0.0,0.0,0.0,0
1580139880630418425,5938,1580139880631927967,/fgps,1,14,45.6226930213,9.28164673218,228.456061745,0.0,0.0,0.0,0.0,0.0,0.0,0.0,0.0,0.0,0
1580139880736567506,5939,1580139880734023094,/fgps,1,14,45.6226930115,9.28164665344,228.46163567,0.0,0.0,0.0,0.0,0.0,0.0,0.0,0.0,0.0,0
1580139880826274423,5940,1580139880827688932,/fgps,1,14,45.6226929241,9.28164649385,228.47499378,0.0,0.0,0.0,0.0,0.0,0.0,0.0,0.0,0.0,0
1580139880930551025,5941,1580139880931823968,/fgps,1,14,45.6226929282,9.28164637894,228.48032573,0.0,0.0,0.0,0.0,0.0,0.0,0.0,0.0,0.0,0
1580139881036707986,5942,1580139881036026954,/fgps,1,14,45.6226928169,9.28164617864,228.477600562,0.0,0.0,0.0,0.0,0.0,0.0,0.0,0.0,0.0,0
1580139881130787411,5943,1580139881133259057,/fgps,1,14,45.6226927012,9.28164600286,228.492900194,0.0,0.0,0.0,0.0,0.0,0.0,0.0,0.0,0.0,0
1580139881231001431,5944,1580139881231013059,/fgps,1,14,45.6226926278,9.28164588489,228.496258857,0.0,0.0,0.0,0.0,0.0,0.0,0.0,0.0,0.0,0
1580139881334170862,5945,1580139881331156969,/fgps,1,14,45.6226925751,9.28164574567,228.50294965,0.0,0.0,0.0,0.0,0.0,0.0,0.0,0.0,0.0,0
1580139881431322829,5946,1580139881432738065,/fgps,1,14,45.62269253,9.28164561639,228.493641527,0.0,0.0,0.0,0.0,0.0,0.0,0.0,0.0,0.0,0
1580139881531446009,5947,1580139881534245014,/fgps,1,14,45.6226925062,9.28164547668,228.499487023,0.0,0.0,0.0,0.0,0.0,0.0,0.0,0.0,0.0,0
1580139881631413804,5948,1580139881634999990,/fgps,1,14,45.6226924813,9.2816453598,228.48882857,0.0,0.0,0.0,0.0,0.0,0.0,0.0,0.0,0.0,0
1580139881728836851,5949,1580139881731712102,/fgps,1,14,45.6226924873,9.28164528874,228.476390781,0.0,0.0,0.0,0.0,0.0,0.0,0.0,0.0,0.0,0
1580139881828478783,5950,1580139881828250885,/fgps,1,14,45.6226924682,9.2816452227,228.468861752,0.0,0.0,0.0,0.0,0.0,0.0,0.0,0.0,0.0,0
1580139881931580923,5951,1580139881932456970,/fgps,1,14,45.6226924542,9.28164513913,228.447590771,0.0,0.0,0.0,0.0,0.0,0.0,0.0,0.0,0.0,0
1580139882049849083,5952,1580139882048648118,/fgps,1,14,45.622692442,9.28164506483,228.437724861,0.0,0.0,0.0,0.0,0.0,0.0,0.0,0.0,0.0,0
1580139882131611929,5953,1580139882132479906,/fgps,1,13,45.6226924769,9.28164501787,228.440576932,0.0,0.0,0.0,0.0,0.0,0.0,0.0,0.0,0.0,0
1580139882234728273,5954,1580139882235100984,/fgps,1,13,45.622692425,9.28164499789,228.438662649,0.0,0.0,0.0,0.0,0.0,0.0,0.0,0.0,0.0,0
1580139882331706196,5955,1580139882333031892,/fgps,1,13,45.6226924712,9.28164493978,228.438189728,0.0,0.0,0.0,0.0,0.0,0.0,0.0,0.0,0.0,0
1580139882434696530,5956,1580139882432559967,/fgps,1,13,45.6226925547,9.28164491973,228.42602256,0.0,0.0,0.0,0.0,0.0,0.0,0.0,0.0,0.0,0
1580139882528750123,5957,1580139882529387950,/fgps,1,13,45.6226925708,9.28164486446,228.422457854,0.0,0.0,0.0,0.0,0.0,0.0,0.0,0.0,0.0,0
1580139882628893217,5958,1580139882629534006,/fgps,1,13,45.6226925352,9.28164482902,228.410423658,0.0,0.0,0.0,0.0,0.0,0.0,0.0,0.0,0.0,0
1580139882735033263,5959,1580139882734289884,/fgps,1,13,45.622692496,9.28164480586,228.418532115,0.0,0.0,0.0,0.0,0.0,0.0,0.0,0.0,0.0,0
1580139882832160045,5960,1580139882832365989,/fgps,1,13,45.6226924682,9.28164479526,228.418843837,0.0,0.0,0.0,0.0,0.0,0.0,0.0,0.0,0.0,0
1580139882929038651,5961,1580139882931042909,/fgps,1,13,45.6226924821,9.2816447801,228.43627815,0.0,0.0,0.0,0.0,0.0,0.0,0.0,0.0,0.0,0
1580139883035500925,5962,1580139883036269903,/fgps,1,13,45.6226924993,9.28164477485,228.442725387,0.0,0.0,0.0,0.0,0.0,0.0,0.0,0.0,0.0,0
1580139883129184591,5963,1580139883130660057,/fgps,1,13,45.6226924955,9.2816447841,228.448063901,0.0,0.0,0.0,0.0,0.0,0.0,0.0,0.0,0.0,0
1580139883232264810,5964,1580139883234155893,/fgps,1,13,45.6226925128,9.28164481217,228.457599295,0.0,0.0,0.0,0.0,0.0,0.0,0.0,0.0,0.0,0
1580139883329170184,5965,1580139883331127882,/fgps,1,14,45.6226925285,9.28164475681,228.454855771,0.0,0.0,0.0,0.0,0.0,0.0,0.0,0.0,0.0,0
1580139883432410301,5966,1580139883432785034,/fgps,1,14,45.6226925099,9.28164468482,228.459141701,0.0,0.0,0.0,0.0,0.0,0.0,0.0,0.0,0.0,0
1580139883529590984,5967,1580139883529787063,/fgps,1,14,45.622692539,9.28164459494,228.457137641,0.0,0.0,0.0,0.0,0.0,0.0,0.0,0.0,0.0,0
1580139883629731480,5968,1580139883630198001,/fgps,1,14,45.622692514,9.28164452377,228.460627276,0.0,0.0,0.0,0.0,0.0,0.0,0.0,0.0,0.0,0
1580139883729851904,5969,1580139883730410099,/fgps,1,14,45.6226924989,9.28164448229,228.470242585,0.0,0.0,0.0,0.0,0.0,0.0,0.0,0.0,0.0,0
1580139883830013295,5970,1580139883832138061,/fgps,1,14,45.6226924633,9.28164442705,228.47353114,0.0,0.0,0.0,0.0,0.0,0.0,0.0,0.0,0.0,0
1580139883927126635,5971,1580139883930923938,/fgps,1,14,45.6226924268,9.28164434565,228.4864161,0.0,0.0,0.0,0.0,0.0,0.0,0.0,0.0,0.0,0
1580139884048468400,5972,1580139884048055887,/fgps,1,14,45.6226924101,9.28164433604,228.501208609,0.0,0.0,0.0,0.0,0.0,0.0,0.0,0.0,0.0,0
1580139884133281044,5973,1580139884133019924,/fgps,1,14,45.6226923531,9.28164426661,228.518725771,0.0,0.0,0.0,0.0,0.0,0.0,0.0,0.0,0.0,0
1580139884233315191,5974,1580139884232264041,/fgps,1,14,45.6226923305,9.2816441858,228.529532721,0.0,0.0,0.0,0.0,0.0,0.0,0.0,0.0,0.0,0
1580139884330242094,5975,1580139884329375982,/fgps,1,14,45.6226922524,9.28164410304,228.554900241,0.0,0.0,0.0,0.0,0.0,0.0,0.0,0.0,0.0,0
1580139884436347681,5976,1580139884436180114,/fgps,1,14,45.6226922564,9.28164404823,228.584738286,0.0,0.0,0.0,0.0,0.0,0.0,0.0,0.0,0.0,0
1580139884530371086,5977,1580139884529465913,/fgps,1,14,45.6226922095,9.28164400253,228.610987769,0.0,0.0,0.0,0.0,0.0,0.0,0.0,0.0,0.0,0
1580139884636575612,5978,1580139884634965896,/fgps,1,14,45.622692188,9.28164393,228.633840336,0.0,0.0,0.0,0.0,0.0,0.0,0.0,0.0,0.0,0
1580139884730540460,5979,1580139884729759931,/fgps,1,14,45.6226921763,9.28164391406,228.659324185,0.0,0.0,0.0,0.0,0.0,0.0,0.0,0.0,0.0,0
1580139884830608931,5980,1580139884832781076,/fgps,1,14,45.6226921466,9.28164394742,228.67719287,0.0,0.0,0.0,0.0,0.0,0.0,0.0,0.0,0.0,0
1580139884930676977,5981,1580139884929852008,/fgps,1,14,45.6226921611,9.28164396799,228.693425197,0.0,0.0,0.0,0.0,0.0,0.0,0.0,0.0,0.0,0
1580139885045913224,5982,1580139885047774076,/fgps,1,14,45.6226921251,9.28164398453,228.695558984,0.0,0.0,0.0,0.0,0.0,0.0,0.0,0.0,0.0,0
1580139885130758271,5983,1580139885130739927,/fgps,1,14,45.6226921159,9.28164401196,228.69347603,0.0,0.0,0.0,0.0,0.0,0.0,0.0,0.0,0.0,0
1580139885230810340,5984,1580139885234312057,/fgps,1,14,45.6226921144,9.28164398747,228.684435255,0.0,0.0,0.0,0.0,0.0,0.0,0.0,0.0,0.0,0
1580139885330858646,5985,1580139885330696105,/fgps,1,14,45.6226921414,9.28164401401,228.680072493,0.0,0.0,0.0,0.0,0.0,0.0,0.0,0.0,0.0,0
1580139885430827921,5986,1580139885429615020,/fgps,1,14,45.622692165,9.28164400492,228.680066294,0.0,0.0,0.0,0.0,0.0,0.0,0.0,0.0,0.0,0
1580139885533837982,5987,1580139885531136035,/fgps,1,14,45.6226923467,9.28164398071,228.658768249,0.0,0.0,0.0,0.0,0.0,0.0,0.0,0.0,0.0,0
1580139885627990053,5988,1580139885630100011,/fgps,1,14,45.6226924698,9.2816439174,228.647565683,0.0,0.0,0.0,0.0,0.0,0.0,0.0,0.0,0.0,0
1580139885734214520,5989,1580139885738421916,/fgps,1,14,45.6226925988,9.28164384631,228.620022533,0.0,0.0,0.0,0.0,0.0,0.0,0.0,0.0,0.0,0
1580139885825148787,5990,1580139885824557065,/fgps,1,14,45.6226927504,9.28164378702,228.605937623,0.0,0.0,0.0,0.0,0.0,0.0,0.0,0.0,0.0,0
1580139885937426320,5991,1580139885935197114,/fgps,1,14,45.6226928612,9.28164378985,228.602978342,0.0,0.0,0.0,0.0,0.0,0.0,0.0,0.0,0.0,0
1580139886052547511,5992,1580139886053179979,/fgps,1,14,45.6226930065,9.28164372838,228.5867549,0.0,0.0,0.0,0.0,0.0,0.0,0.0,0.0,0.0,0
1580139886131455058,5993,1580139886132325887,/fgps,1,14,45.6226931185,9.28164366489,228.582852841,0.0,0.0,0.0,0.0,0.0,0.0,0.0,0.0,0.0,0
1580139886231608165,5994,1580139886231270074,/fgps,1,14,45.6226932596,9.28164358533,228.575602301,0.0,0.0,0.0,0.0,0.0,0.0,0.0,0.0,0.0,0
1580139886334595229,5995,1580139886331357002,/fgps,1,14,45.6226933756,9.28164354565,228.569398028,0.0,0.0,0.0,0.0,0.0,0.0,0.0,0.0,0.0,0
1580139886434589664,5996,1580139886430320024,/fgps,1,14,45.622693464,9.28164344595,228.558199039,0.0,0.0,0.0,0.0,0.0,0.0,0.0,0.0,0.0,0
1580139886528462712,5997,1580139886529978990,/fgps,1,14,45.6226935504,9.2816433954,228.54057671,0.0,0.0,0.0,0.0,0.0,0.0,0.0,0.0,0.0,0
1580139886634729182,5998,1580139886631432056,/fgps,1,14,45.622693595,9.28164327637,228.529182712,0.0,0.0,0.0,0.0,0.0,0.0,0.0,0.0,0.0,0
1580139886735687150,5999,1580139886738018035,/fgps,1,14,45.6226936371,9.28164320219,228.52885794,0.0,0.0,0.0,0.0,0.0,0.0,0.0,0.0,0.0,0
1580139886825849150,6000,1580139886822886943,/fgps,1,14,45.6226936196,9.28164318623,228.54349203,0.0,0.0,0.0,0.0,0.0,0.0,0.0,0.0,0.0,0
1580139886930896598,6001,1580139886931478023,/fgps,1,14,45.622693609,9.28164314568,228.557090475,0.0,0.0,0.0,0.0,0.0,0.0,0.0,0.0,0.0,0
1580139887036162762,6002,1580139887037180900,/fgps,1,14,45.6226936225,9.28164308311,228.561143558,0.0,0.0,0.0,0.0,0.0,0.0,0.0,0.0,0.0,0
1580139887132110114,6003,1580139887129220962,/fgps,1,14,45.6226936263,9.28164305008,228.561829864,0.0,0.0,0.0,0.0,0.0,0.0,0.0,0.0,0.0,0
1580139887231348886,6004,1580139887233406066,/fgps,1,14,45.6226936103,9.28164299897,228.561614842,0.0,0.0,0.0,0.0,0.0,0.0,0.0,0.0,0.0,0
1580139887329576584,6005,1580139887329662084,/fgps,1,14,45.6226936611,9.28164302409,228.564521411,0.0,0.0,0.0,0.0,0.0,0.0,0.0,0.0,0.0,0
1580139887435573954,6006,1580139887432631969,/fgps,1,14,45.6226936688,9.28164296906,228.573168877,0.0,0.0,0.0,0.0,0.0,0.0,0.0,0.0,0.0,0
1580139887529630482,6007,1580139887529604911,/fgps,1,14,45.6226937115,9.28164296204,228.569803478,0.0,0.0,0.0,0.0,0.0,0.0,0.0,0.0,0.0,0
1580139887632806449,6008,1580139887630896091,/fgps,1,14,45.6226938728,9.28164287256,228.539213051,0.0,0.0,0.0,0.0,0.0,0.0,0.0,0.0,0.0,0
1580139887729798031,6009,1580139887734401941,/fgps,1,14,45.6226940643,9.28164286663,228.527651984,0.0,0.0,0.0,0.0,0.0,0.0,0.0,0.0,0.0,0
1580139887829824193,6010,1580139887826040983,/fgps,1,14,45.6226942815,9.28164289742,228.523828472,0.0,0.0,0.0,0.0,0.0,0.0,0.0,0.0,0.0,0
1580139887932976793,6011,1580139887930887937,/fgps,1,14,45.6226944941,9.2816429339,228.5176628,0.0,0.0,0.0,0.0,0.0,0.0,0.0,0.0,0.0,0
1580139888048050667,6012,1580139888049117088,/fgps,1,14,45.6226947534,9.28164302155,228.503463668,0.0,0.0,0.0,0.0,0.0,0.0,0.0,0.0,0.0,0
1580139888132908375,6013,1580139888129623889,/fgps,1,14,45.6226949655,9.28164301153,228.487850327,0.0,0.0,0.0,0.0,0.0,0.0,0.0,0.0,0.0,0
1580139888235963662,6014,1580139888235150098,/fgps,1,14,45.6226951467,9.28164302344,228.472205417,0.0,0.0,0.0,0.0,0.0,0.0,0.0,0.0,0.0,0
1580139888329916242,6015,1580139888330106973,/fgps,1,14,45.6226953768,9.2816430502,228.456831919,0.0,0.0,0.0,0.0,0.0,0.0,0.0,0.0,0.0,0
1580139888430046357,6016,1580139888432097911,/fgps,1,14,45.6226955721,9.28164307538,228.445174758,0.0,0.0,0.0,0.0,0.0,0.0,0.0,0.0,0.0,0
1580139888531408650,6017,1580139888531863927,/fgps,1,14,45.622695737,9.28164313412,228.423283753,0.0,0.0,0.0,0.0,0.0,0.0,0.0,0.0,0.0,0
1580139888630156252,6018,1580139888629592895,/fgps,1,14,45.622695889,9.28164315242,228.403339688,0.0,0.0,0.0,0.0,0.0,0.0,0.0,0.0,0.0,0
1580139888739234623,6019,1580139888735722064,/fgps,1,14,45.6226960553,9.28164318523,228.374885799,0.0,0.0,0.0,0.0,0.0,0.0,0.0,0.0,0.0,0
1580139888830213983,6020,1580139888829766988,/fgps,1,14,45.6226962618,9.28164324676,228.344537709,0.0,0.0,0.0,0.0,0.0,0.0,0.0,0.0,0.0,0
1580139888927213021,6021,1580139888930381059,/fgps,1,13,45.622696409,9.28164331751,228.322424504,0.0,0.0,0.0,0.0,0.0,0.0,0.0,0.0,0.0,0
1580139889029010791,6022,1580139889034008979,/fgps,1,13,45.6226965597,9.28164339384,228.295597788,0.0,0.0,0.0,0.0,0.0,0.0,0.0,0.0,0.0,0
1580139889133463536,6023,1580139889130882978,/fgps,1,13,45.6226967094,9.28164346696,228.287422546,0.0,0.0,0.0,0.0,0.0,0.0,0.0,0.0,0.0,0
1580139889239552091,6024,1580139889238576889,/fgps,1,13,45.6226968188,9.28164353449,228.254469533,0.0,0.0,0.0,0.0,0.0,0.0,0.0,0.0,0.0,0
1580139889330537778,6025,1580139889331777095,/fgps,1,13,45.6226969661,9.28164357125,228.217253054,0.0,0.0,0.0,0.0,0.0,0.0,0.0,0.0,0.0,0
1580139889430652818,6026,1580139889430727005,/fgps,1,13,45.6226970665,9.28164360129,228.196561424,0.0,0.0,0.0,0.0,0.0,0.0,0.0,0.0,0.0,0
1580139889530797954,6027,1580139889529367923,/fgps,1,13,45.6226971736,9.28164362033,228.174087384,0.0,0.0,0.0,0.0,0.0,0.0,0.0,0.0,0.0,0
1580139889630906388,6028,1580139889631505012,/fgps,1,14,45.622697238,9.28164362863,228.147532558,0.0,0.0,0.0,0.0,0.0,0.0,0.0,0.0,0.0,0
1580139889730916432,6029,1580139889732294082,/fgps,1,14,45.6226973428,9.28164358457,228.135095765,0.0,0.0,0.0,0.0,0.0,0.0,0.0,0.0,0.0,0
1580139889834146315,6030,1580139889835650920,/fgps,1,14,45.6226974198,9.28164358625,228.133582931,0.0,0.0,0.0,0.0,0.0,0.0,0.0,0.0,0.0,0
1580139889931941067,6031,1580139889932077884,/fgps,1,14,45.6226974917,9.28164359649,228.128009502,0.0,0.0,0.0,0.0,0.0,0.0,0.0,0.0,0.0,0
1580139890052644250,6032,1580139890050004959,/fgps,1,14,45.6226975545,9.28164360241,228.127335779,0.0,0.0,0.0,0.0,0.0,0.0,0.0,0.0,0.0,0
1580139890131452669,6033,1580139890129654884,/fgps,1,14,45.6226976571,9.28164358626,228.121313453,0.0,0.0,0.0,0.0,0.0,0.0,0.0,0.0,0.0,0
1580139890234492484,6034,1580139890233634948,/fgps,1,14,45.6226977316,9.28164356439,228.116984752,0.0,0.0,0.0,0.0,0.0,0.0,0.0,0.0,0.0,0
1580139890331463960,6035,1580139890331108093,/fgps,1,14,45.6226978709,9.28164352346,228.097793952,0.0,0.0,0.0,0.0,0.0,0.0,0.0,0.0,0.0,0
1580139890428705778,6036,1580139890432276964,/fgps,1,14,45.6226979922,9.28164356115,228.091947793,0.0,0.0,0.0,0.0,0.0,0.0,0.0,0.0,0.0,0
1580139890525811586,6037,1580139890529095888,/fgps,1,14,45.6226980629,9.28164348879,228.08390738,0.0,0.0,0.0,0.0,0.0,0.0,0.0,0.0,0.0,0
1580139890628982282,6038,1580139890630244016,/fgps,1,14,45.6226981245,9.28164340709,228.075801169,0.0,0.0,0.0,0.0,0.0,0.0,0.0,0.0,0.0,0
1580139890728892505,6039,1580139890729980945,/fgps,1,14,45.6226981615,9.28164337326,228.072056732,0.0,0.0,0.0,0.0,0.0,0.0,0.0,0.0,0.0,0
1580139890830560014,6040,1580139890834357023,/fgps,1,14,45.6226982367,9.28164333562,228.067915714,0.0,0.0,0.0,0.0,0.0,0.0,0.0,0.0,0.0,0
1580139890932329722,6041,1580139890932558059,/fgps,1,14,45.6226983002,9.28164330817,228.068221762,0.0,0.0,0.0,0.0,0.0,0.0,0.0,0.0,0.0,0
1580139891035537743,6042,1580139891037367105,/fgps,1,15,45.6226983109,9.28164324093,228.067415846,0.0,0.0,0.0,0.0,0.0,0.0,0.0,0.0,0.0,0
1580139891129512401,6043,1580139891130961894,/fgps,1,15,45.6226983863,9.28164317493,228.073795057,0.0,0.0,0.0,0.0,0.0,0.0,0.0,0.0,0.0,0
1580139891235616635,6044,1580139891232604026,/fgps,1,15,45.6226984062,9.28164315698,228.08851205,0.0,0.0,0.0,0.0,0.0,0.0,0.0,0.0,0.0,0
1580139891332623001,6045,1580139891329050064,/fgps,1,15,45.6226984504,9.28164310239,228.089065436,0.0,0.0,0.0,0.0,0.0,0.0,0.0,0.0,0.0,0
1580139891432733395,6046,1580139891429466962,/fgps,1,15,45.6226984676,9.28164308534,228.077086869,0.0,0.0,0.0,0.0,0.0,0.0,0.0,0.0,0.0,0
1580139891529816452,6047,1580139891530886888,/fgps,1,15,45.62269852,9.28164306041,228.067516182,0.0,0.0,0.0,0.0,0.0,0.0,0.0,0.0,0.0,0
1580139891632865974,6048,1580139891628810882,/fgps,1,15,45.6226985616,9.28164306242,228.072519291,0.0,0.0,0.0,0.0,0.0,0.0,0.0,0.0,0.0,0
1580139891736115002,6049,1580139891733813047,/fgps,1,15,45.6226985445,9.2816430173,228.072428898,0.0,0.0,0.0,0.0,0.0,0.0,0.0,0.0,0.0,0
1580139891835835601,6050,1580139891836177110,/fgps,1,15,45.6226985712,9.28164302667,228.072968285,0.0,0.0,0.0,0.0,0.0,0.0,0.0,0.0,0.0,0
1580139891930240027,6051,1580139891929955959,/fgps,1,15,45.6226985584,9.28164307837,228.065579392,0.0,0.0,0.0,0.0,0.0,0.0,0.0,0.0,0.0,0
1580139892045552430,6052,1580139892047708034,/fgps,1,15,45.6226985861,9.2816430545,228.057024966,0.0,0.0,0.0,0.0,0.0,0.0,0.0,0.0,0.0,0
1580139892130479920,6053,1580139892131839990,/fgps,1,15,45.6226985947,9.2816430838,228.041483653,0.0,0.0,0.0,0.0,0.0,0.0,0.0,0.0,0.0,0
1580139892230635924,6054,1580139892232474088,/fgps,1,15,45.6226985923,9.28164307196,228.033422344,0.0,0.0,0.0,0.0,0.0,0.0,0.0,0.0,0.0,0
1580139892330700457,6055,1580139892331315040,/fgps,1,15,45.622698633,9.28164308089,228.020756692,0.0,0.0,0.0,0.0,0.0,0.0,0.0,0.0,0.0,0
1580139892430782443,6056,1580139892432642936,/fgps,1,15,45.6226986467,9.28164306127,228.002520192,0.0,0.0,0.0,0.0,0.0,0.0,0.0,0.0,0.0,0
1580139892530784557,6057,1580139892530524969,/fgps,1,15,45.6226987095,9.2816430794,227.989315894,0.0,0.0,0.0,0.0,0.0,0.0,0.0,0.0,0.0,0
1580139892630741818,6058,1580139892631325960,/fgps,1,15,45.6226987651,9.28164304168,227.975298903,0.0,0.0,0.0,0.0,0.0,0.0,0.0,0.0,0.0,0
1580139892733770873,6059,1580139892734103918,/fgps,1,15,45.6226988104,9.28164306378,227.962711291,0.0,0.0,0.0,0.0,0.0,0.0,0.0,0.0,0.0,0
1580139892824891960,6060,1580139892826520919,/fgps,1,15,45.6226989681,9.28164305295,227.952401466,0.0,0.0,0.0,0.0,0.0,0.0,0.0,0.0,0.0,0
1580139892929430824,6061,1580139892930226087,/fgps,1,15,45.6226991096,9.28164307487,227.939562565,0.0,0.0,0.0,0.0,0.0,0.0,0.0,0.0,0.0,0
1580139893034405872,6062,1580139893036814928,/fgps,1,15,45.6226993488,9.2816430895,227.949667449,0.0,0.0,0.0,0.0,0.0,0.0,0.0,0.0,0.0,0
1580139893128532385,6063,1580139893130872964,/fgps,1,15,45.622699666,9.28164311828,227.961070425,0.0,0.0,0.0,0.0,0.0,0.0,0.0,0.0,0.0,0
1580139893237839882,6064,1580139893236078977,/fgps,1,15,45.6227000413,9.28164315576,227.964069598,0.0,0.0,0.0,0.0,0.0,0.0,0.0,0.0,0.0,0
1580139893329019208,6065,1580139893330687999,/fgps,1,15,45.6227004852,9.28164321776,227.971116715,0.0,0.0,0.0,0.0,0.0,0.0,0.0,0.0,0.0,0
1580139893432153026,6066,1580139893432223081,/fgps,1,15,45.6227010028,9.28164325405,227.970467056,0.0,0.0,0.0,0.0,0.0,0.0,0.0,0.0,0.0,0
1580139893532676613,6067,1580139893532231092,/fgps,1,15,45.6227016045,9.28164330923,227.973510701,0.0,0.0,0.0,0.0,0.0,0.0,0.0,0.0,0.0,0
1580139893632206257,6068,1580139893634025096,/fgps,1,15,45.6227022958,9.28164339277,227.977688558,0.0,0.0,0.0,0.0,0.0,0.0,0.0,0.0,0.0,0
1580139893735876238,6069,1580139893735933065,/fgps,1,15,45.6227030388,9.28164347108,227.95738532,0.0,0.0,0.0,0.0,0.0,0.0,0.0,0.0,0.0,0
1580139893835556609,6070,1580139893835819005,/fgps,1,15,45.6227038954,9.28164355499,227.946053736,0.0,0.0,0.0,0.0,0.0,0.0,0.0,0.0,0.0,0
1580139893935741087,6071,1580139893936337947,/fgps,1,15,45.6227047182,9.28164363256,227.920942417,0.0,0.0,0.0,0.0,0.0,0.0,0.0,0.0,0.0,0
1580139894050981280,6072,1580139894048253059,/fgps,1,15,45.6227055998,9.28164371782,227.896088653,0.0,0.0,0.0,0.0,0.0,0.0,0.0,0.0,0.0,0
1580139894126734331,6073,1580139894125319004,/fgps,1,15,45.6227063909,9.2816438078,227.867281936,0.0,0.0,0.0,0.0,0.0,0.0,0.0,0.0,0.0,0
1580139894229932810,6074,1580139894231863975,/fgps,1,15,45.6227071568,9.28164387173,227.843824288,0.0,0.0,0.0,0.0,0.0,0.0,0.0,0.0,0.0,0
1580139894333289678,6075,1580139894334050893,/fgps,1,15,45.6227079975,9.28164393423,227.82826117,0.0,0.0,0.0,0.0,0.0,0.0,0.0,0.0,0.0,0
1580139894430374004,6076,1580139894431015968,/fgps,1,15,45.622708736,9.28164394648,227.809176637,0.0,0.0,0.0,0.0,0.0,0.0,0.0,0.0,0.0,0
1580139894530483648,6077,1580139894532685995,/fgps,1,15,45.6227094694,9.28164397324,227.796301365,0.0,0.0,0.0,0.0,0.0,0.0,0.0,0.0,0.0,0
1580139894633696003,6078,1580139894632184028,/fgps,1,15,45.6227101489,9.28164401562,227.800874694,0.0,0.0,0.0,0.0,0.0,0.0,0.0,0.0,0.0,0
1580139894733115335,6079,1580139894735070943,/fgps,1,15,45.6227108804,9.28164415076,227.7914842,0.0,0.0,0.0,0.0,0.0,0.0,0.0,0.0,0.0,0
1580139894831027324,6080,1580139894829461097,/fgps,1,15,45.622711454,9.28164415778,227.787990839,0.0,0.0,0.0,0.0,0.0,0.0,0.0,0.0,0.0,0
1580139894934128929,6081,1580139894933031082,/fgps,1,15,45.622712068,9.28164421905,227.779278545,0.0,0.0,0.0,0.0,0.0,0.0,0.0,0.0,0.0,0
1580139895039514845,6082,1580139895041260004,/fgps,1,15,45.6227126388,9.28164420014,227.778926967,0.0,0.0,0.0,0.0,0.0,0.0,0.0,0.0,0.0,0
1580139895131021867,6083,1580139895131326913,/fgps,1,15,45.6227131819,9.28164424059,227.778115222,0.0,0.0,0.0,0.0,0.0,0.0,0.0,0.0,0.0,0
1580139895237739863,6084,1580139895236515045,/fgps,1,15,45.6227137073,9.28164428046,227.783600173,0.0,0.0,0.0,0.0,0.0,0.0,0.0,0.0,0.0,0
1580139895334842852,6085,1580139895332947969,/fgps,1,15,45.6227141341,9.28164431987,227.796292724,0.0,0.0,0.0,0.0,0.0,0.0,0.0,0.0,0.0,0
1580139895434949327,6086,1580139895436657905,/fgps,1,15,45.6227145939,9.28164432319,227.807120889,0.0,0.0,0.0,0.0,0.0,0.0,0.0,0.0,0.0,0
1580139895531985697,6087,1580139895532411098,/fgps,1,15,45.6227150277,9.28164435938,227.824176764,0.0,0.0,0.0,0.0,0.0,0.0,0.0,0.0,0.0,0
1580139895632068473,6088,1580139895631649971,/fgps,1,15,45.6227154309,9.28164443189,227.849065269,0.0,0.0,0.0,0.0,0.0,0.0,0.0,0.0,0.0,0
1580139895738364878,6089,1580139895736938953,/fgps,1,15,45.6227158611,9.28164447019,227.866294148,0.0,0.0,0.0,0.0,0.0,0.0,0.0,0.0,0.0,0
1580139895835261373,6090,1580139895834517002,/fgps,1,15,45.6227163562,9.281644542,227.883527325,0.0,0.0,0.0,0.0,0.0,0.0,0.0,0.0,0.0,0
1580139895932485620,6091,1580139895933456897,/fgps,1,15,45.62271699,9.28164464982,227.925930737,0.0,0.0,0.0,0.0,0.0,0.0,0.0,0.0,0.0,0
1580139896044757876,6092,1580139896048254966,/fgps,1,15,45.6227177859,9.28164474947,227.961426215,0.0,0.0,0.0,0.0,0.0,0.0,0.0,0.0,0.0,0
1580139896126674158,6093,1580139896131520986,/fgps,1,15,45.6227188306,9.28164487505,227.998131123,0.0,0.0,0.0,0.0,0.0,0.0,0.0,0.0,0.0,0
1580139896236070283,6094,1580139896236598968,/fgps,1,15,45.6227199642,9.28164503355,228.029095023,0.0,0.0,0.0,0.0,0.0,0.0,0.0,0.0,0.0,0
1580139896332779797,6095,1580139896331157922,/fgps,1,15,45.6227210951,9.28164526291,228.06360295,0.0,0.0,0.0,0.0,0.0,0.0,0.0,0.0,0.0,0
1580139896432748570,6096,1580139896430556058,/fgps,1,15,45.6227223486,9.28164553968,228.104857422,0.0,0.0,0.0,0.0,0.0,0.0,0.0,0.0,0.0,0
1580139896531350903,6097,1580139896534209966,/fgps,1,15,45.6227238725,9.2816457247,228.142146465,0.0,0.0,0.0,0.0,0.0,0.0,0.0,0.0,0.0,0
1580139896629754187,6098,1580139896631505012,/fgps,1,15,45.6227255373,9.28164590081,228.171504401,0.0,0.0,0.0,0.0,0.0,0.0,0.0,0.0,0.0,0
1580139896735728679,6099,1580139896735742092,/fgps,1,15,45.622727351,9.28164613963,228.200728895,0.0,0.0,0.0,0.0,0.0,0.0,0.0,0.0,0.0,0
1580139896823849508,6100,1580139896826286077,/fgps,1,15,45.6227292536,9.28164644988,228.205934489,0.0,0.0,0.0,0.0,0.0,0.0,0.0,0.0,0.0,0
1580139896929932772,6101,1580139896931684970,/fgps,1,15,45.6227313133,9.28164668613,228.231857704,0.0,0.0,0.0,0.0,0.0,0.0,0.0,0.0,0.0,0
1580139897039070857,6102,1580139897040102958,/fgps,1,15,45.6227334771,9.28164697443,228.250859093,0.0,0.0,0.0,0.0,0.0,0.0,0.0,0.0,0.0,0
1580139897133052960,6103,1580139897131966114,/fgps,1,15,45.6227357558,9.28164724593,228.283754767,0.0,0.0,0.0,0.0,0.0,0.0,0.0,0.0,0.0,0
1580139897233168301,6104,1580139897229932069,/fgps,1,15,45.6227381319,9.28164757798,228.304076529,0.0,0.0,0.0,0.0,0.0,0.0,0.0,0.0,0.0,0
1580139897327379928,6105,1580139897332016944,/fgps,1,15,45.6227406039,9.28164788564,228.332576005,0.0,0.0,0.0,0.0,0.0,0.0,0.0,0.0,0.0,0
1580139897430192719,6106,1580139897432593107,/fgps,1,15,45.6227432003,9.28164825597,228.364424839,0.0,0.0,0.0,0.0,0.0,0.0,0.0,0.0,0.0,0
1580139897530427026,6107,1580139897530981063,/fgps,1,15,45.6227459346,9.28164862234,228.381914429,0.0,0.0,0.0,0.0,0.0,0.0,0.0,0.0,0.0,0
1580139897633466347,6108,1580139897633909940,/fgps,1,15,45.6227486738,9.28164903208,228.399687689,0.0,0.0,0.0,0.0,0.0,0.0,0.0,0.0,0.0,0
1580139897732771329,6109,1580139897733350038,/fgps,1,15,45.6227514757,9.28164935319,228.416402505,0.0,0.0,0.0,0.0,0.0,0.0,0.0,0.0,0.0,0
1580139897830603627,6110,1580139897828836917,/fgps,1,15,45.6227543459,9.28164968954,228.41968298,0.0,0.0,0.0,0.0,0.0,0.0,0.0,0.0,0.0,0
1580139897930619442,6111,1580139897932406902,/fgps,1,15,45.6227573293,9.28165007484,228.440520853,0.0,0.0,0.0,0.0,0.0,0.0,0.0,0.0,0.0,0
1580139898060970670,6112,1580139898061532020,/fgps,1,15,45.6227603207,9.28165040291,228.459872597,0.0,0.0,0.0,0.0,0.0,0.0,0.0,0.0,0.0,0
1580139898136915194,6113,1580139898135272979,/fgps,1,15,45.6227634708,9.28165074349,228.47328273,0.0,0.0,0.0,0.0,0.0,0.0,0.0,0.0,0.0,0
1580139898234012967,6114,1580139898235404968,/fgps,1,15,45.6227666532,9.28165103947,228.489263109,0.0,0.0,0.0,0.0,0.0,0.0,0.0,0.0,0.0,0
1580139898334075470,6115,1580139898331450939,/fgps,1,15,45.6227699811,9.28165138396,228.511945934,0.0,0.0,0.0,0.0,0.0,0.0,0.0,0.0,0.0,0
1580139898434070988,6116,1580139898432710886,/fgps,1,15,45.6227732977,9.28165170167,228.534344907,0.0,0.0,0.0,0.0,0.0,0.0,0.0,0.0,0.0,0
1580139898534246093,6117,1580139898534871101,/fgps,1,15,45.6227766764,9.28165202322,228.54444814,0.0,0.0,0.0,0.0,0.0,0.0,0.0,0.0,0.0,0
1580139898637514053,6118,1580139898634154081,/fgps,1,15,45.6227801772,9.28165233742,228.561701182,0.0,0.0,0.0,0.0,0.0,0.0,0.0,0.0,0.0,0
1580139898737596312,6119,1580139898737695932,/fgps,1,15,45.6227837702,9.28165269429,228.575741661,0.0,0.0,0.0,0.0,0.0,0.0,0.0,0.0,0.0,0
1580139898834645400,6120,1580139898837363958,/fgps,1,15,45.6227873982,9.28165303658,228.586441737,0.0,0.0,0.0,0.0,0.0,0.0,0.0,0.0,0.0,0
1580139898940563001,6121,1580139898935136079,/fgps,1,15,45.6227911142,9.28165335698,228.605248636,0.0,0.0,0.0,0.0,0.0,0.0,0.0,0.0,0.0,0
1580139899041619193,6122,1580139899039982080,/fgps,1,15,45.6227949832,9.28165376986,228.617974992,0.0,0.0,0.0,0.0,0.0,0.0,0.0,0.0,0.0,0
1580139899137701434,6123,1580139899136704921,/fgps,1,15,45.6227988881,9.28165416664,228.627545774,0.0,0.0,0.0,0.0,0.0,0.0,0.0,0.0,0.0,0
1580139899234752396,6124,1580139899234347105,/fgps,1,15,45.6228028149,9.28165456913,228.636564325,0.0,0.0,0.0,0.0,0.0,0.0,0.0,0.0,0.0,0
1580139899334762649,6125,1580139899334188938,/fgps,1,15,45.6228069304,9.28165496479,228.629338716,0.0,0.0,0.0,0.0,0.0,0.0,0.0,0.0,0.0,0
1580139899434733342,6126,1580139899439162969,/fgps,1,15,45.6228110423,9.28165542592,228.630885725,0.0,0.0,0.0,0.0,0.0,0.0,0.0,0.0,0.0,0
1580139899534876564,6127,1580139899534214019,/fgps,1,15,45.6228152694,9.2816558213,228.635447721,0.0,0.0,0.0,0.0,0.0,0.0,0.0,0.0,0.0,0
1580139899631933435,6128,1580139899632505893,/fgps,1,15,45.6228193972,9.28165620327,228.645451949,0.0,0.0,0.0,0.0,0.0,0.0,0.0,0.0,0.0,0
1580139899732158865,6129,1580139899733458042,/fgps,1,15,45.6228235074,9.28165662567,228.646284053,0.0,0.0,0.0,0.0,0.0,0.0,0.0,0.0,0.0,0
1580139899838360801,6130,1580139899840847015,/fgps,1,15,45.6228276015,9.28165701201,228.652868727,0.0,0.0,0.0,0.0,0.0,0.0,0.0,0.0,0.0,0
1580139899935548491,6131,1580139899932739019,/fgps,1,15,45.6228318505,9.28165736996,228.661580688,0.0,0.0,0.0,0.0,0.0,0.0,0.0,0.0,0.0,0
1580139900047604313,6132,1580139900047796010,/fgps,1,15,45.6228360445,9.28165775402,228.690819636,0.0,0.0,0.0,0.0,0.0,0.0,0.0,0.0,0.0,0
1580139900129433821,6133,1580139900130604982,/fgps,1,15,45.622840192,9.28165808038,228.704097357,0.0,0.0,0.0,0.0,0.0,0.0,0.0,0.0,0.0,0
1580139900235528668,6134,1580139900235799074,/fgps,1,15,45.6228443644,9.281658415,228.71624531,0.0,0.0,0.0,0.0,0.0,0.0,0.0,0.0,0.0,0
1580139900332523059,6135,1580139900334080934,/fgps,1,15,45.6228485044,9.28165874854,228.717245824,0.0,0.0,0.0,0.0,0.0,0.0,0.0,0.0,0.0,0
1580139900432586890,6136,1580139900429380893,/fgps,1,15,45.6228526765,9.28165912352,228.720173092,0.0,0.0,0.0,0.0,0.0,0.0,0.0,0.0,0.0,0
1580139900526643544,6137,1580139900528721094,/fgps,1,15,45.6228568332,9.28165954709,228.713805018,0.0,0.0,0.0,0.0,0.0,0.0,0.0,0.0,0.0,0
1580139900629770752,6138,1580139900630804061,/fgps,1,15,45.6228609392,9.28165992572,228.721820863,0.0,0.0,0.0,0.0,0.0,0.0,0.0,0.0,0.0,0
1580139900738924608,6139,1580139900730907917,/fgps,1,15,45.6228650449,9.28166038558,228.70822774,0.0,0.0,0.0,0.0,0.0,0.0,0.0,0.0,0.0,0
1580139900826901771,6140,1580139900825500011,/fgps,1,15,45.6228691093,9.28166083163,228.705713676,0.0,0.0,0.0,0.0,0.0,0.0,0.0,0.0,0.0,0
1580139900931507578,6141,1580139900934222936,/fgps,1,15,45.6228732319,9.28166128116,228.731296472,0.0,0.0,0.0,0.0,0.0,0.0,0.0,0.0,0.0,0
1580139901039119277,6142,1580139901040924072,/fgps,1,15,45.6228774483,9.28166175173,228.750970782,0.0,0.0,0.0,0.0,0.0,0.0,0.0,0.0,0.0,0
1580139901127270381,6143,1580139901130894899,/fgps,1,15,45.62288165,9.28166219176,228.757380919,0.0,0.0,0.0,0.0,0.0,0.0,0.0,0.0,0.0,0
1580139901233482156,6144,1580139901234313964,/fgps,1,15,45.6228858149,9.28166261346,228.759222124,0.0,0.0,0.0,0.0,0.0,0.0,0.0,0.0,0.0,0
1580139901329983216,6145,1580139901330651044,/fgps,1,15,45.6228899419,9.28166300846,228.764022454,0.0,0.0,0.0,0.0,0.0,0.0,0.0,0.0,0.0,0
1580139901431771077,6146,1580139901432723045,/fgps,1,15,45.6228939858,9.28166339241,228.768119995,0.0,0.0,0.0,0.0,0.0,0.0,0.0,0.0,0.0,0
1580139901533610354,6147,1580139901533622980,/fgps,1,14,45.6228980677,9.28166375751,228.778541981,0.0,0.0,0.0,0.0,0.0,0.0,0.0,0.0,0.0,0
1580139901633601382,6148,1580139901631251096,/fgps,1,14,45.6229021404,9.28166413421,228.772336623,0.0,0.0,0.0,0.0,0.0,0.0,0.0,0.0,0.0,0
1580139901730528602,6149,1580139901734241962,/fgps,1,14,45.6229061355,9.28166447962,228.775259444,0.0,0.0,0.0,0.0,0.0,0.0,0.0,0.0,0.0,0
1580139901830799246,6150,1580139901829556941,/fgps,1,14,45.6229100935,9.28166480413,228.790973817,0.0,0.0,0.0,0.0,0.0,0.0,0.0,0.0,0.0,0
1580139901933849079,6151,1580139901931705951,/fgps,1,14,45.6229139955,9.28166514511,228.800344339,0.0,0.0,0.0,0.0,0.0,0.0,0.0,0.0,0.0,0
1580139902064234846,6152,1580139902066696882,/fgps,1,15,45.6229179062,9.28166548335,228.79377034,0.0,0.0,0.0,0.0,0.0,0.0,0.0,0.0,0.0,0
1580139902133966037,6153,1580139902135335922,/fgps,1,15,45.6229217513,9.28166577016,228.814051471,0.0,0.0,0.0,0.0,0.0,0.0,0.0,0.0,0.0,0
1580139902243009354,6154,1580139902240431070,/fgps,1,15,45.6229256037,9.2816660825,228.819972717,0.0,0.0,0.0,0.0,0.0,0.0,0.0,0.0,0.0,0
1580139902328650351,6155,1580139902333283901,/fgps,1,15,45.6229294202,9.28166642001,228.83351259,0.0,0.0,0.0,0.0,0.0,0.0,0.0,0.0,0.0,0
1580139902432114517,6156,1580139902431941986,/fgps,1,15,45.6229332989,9.28166677958,228.820742679,0.0,0.0,0.0,0.0,0.0,0.0,0.0,0.0,0.0,0
1580139902533111580,6157,1580139902535839080,/fgps,1,15,45.6229371287,9.2816672269,228.826432671,0.0,0.0,0.0,0.0,0.0,0.0,0.0,0.0,0.0,0
1580139902633814013,6158,1580139902633207082,/fgps,1,15,45.6229408879,9.28166769772,228.83750183,0.0,0.0,0.0,0.0,0.0,0.0,0.0,0.0,0.0,0
1580139902730786364,6159,1580139902732148885,/fgps,1,15,45.6229446129,9.28166811974,228.842369244,0.0,0.0,0.0,0.0,0.0,0.0,0.0,0.0,0.0,0
1580139902827687645,6160,1580139902825759887,/fgps,1,15,45.6229483141,9.28166847795,228.853428673,0.0,0.0,0.0,0.0,0.0,0.0,0.0,0.0,0.0,0
1580139902933644285,6161,1580139902930260896,/fgps,1,15,45.6229519929,9.28166876533,228.858549286,0.0,0.0,0.0,0.0,0.0,0.0,0.0,0.0,0.0,0
1580139903039758533,6162,1580139903036447048,/fgps,1,15,45.6229556092,9.28166907395,228.888081198,0.0,0.0,0.0,0.0,0.0,0.0,0.0,0.0,0.0,0
1580139903136380078,6163,1580139903137626886,/fgps,1,15,45.6229591944,9.28166939028,228.90306635,0.0,0.0,0.0,0.0,0.0,0.0,0.0,0.0,0.0,0
1580139903233959730,6164,1580139903234838962,/fgps,1,15,45.6229627957,9.28166963583,228.911026112,0.0,0.0,0.0,0.0,0.0,0.0,0.0,0.0,0.0,0
1580139903334004452,6165,1580139903333038091,/fgps,1,15,45.6229663416,9.28166996428,228.922602176,0.0,0.0,0.0,0.0,0.0,0.0,0.0,0.0,0.0,0
1580139903429183578,6166,1580139903432651042,/fgps,1,15,45.6229699031,9.28167032553,228.9238289,0.0,0.0,0.0,0.0,0.0,0.0,0.0,0.0,0.0,0
1580139903537126733,6167,1580139903536372900,/fgps,1,15,45.6229734529,9.28167069448,228.943151654,0.0,0.0,0.0,0.0,0.0,0.0,0.0,0.0,0.0,0
1580139903632731194,6168,1580139903630904912,/fgps,1,15,45.6229769863,9.28167106927,228.942953127,0.0,0.0,0.0,0.0,0.0,0.0,0.0,0.0,0.0,0
1580139903740023278,6169,1580139903741866111,/fgps,1,15,45.6229805025,9.28167153026,228.940539509,0.0,0.0,0.0,0.0,0.0,0.0,0.0,0.0,0.0,0
1580139903824816037,6170,1580139903826474905,/fgps,1,15,45.622983909,9.28167204053,228.957658787,0.0,0.0,0.0,0.0,0.0,0.0,0.0,0.0,0.0,0
1580139903930709240,6171,1580139903932123899,/fgps,1,15,45.6229872929,9.28167256641,228.95626971,0.0,0.0,0.0,0.0,0.0,0.0,0.0,0.0,0.0,0
1580139904049189540,6172,1580139904050091981,/fgps,1,15,45.6229905411,9.28167302395,228.979148531,0.0,0.0,0.0,0.0,0.0,0.0,0.0,0.0,0.0,0
1580139904125010100,6173,1580139904126004934,/fgps,1,14,45.6229938009,9.28167346958,228.992702903,0.0,0.0,0.0,0.0,0.0,0.0,0.0,0.0,0.0,0
1580139904246148515,6174,1580139904247539043,/fgps,1,15,45.6229969866,9.28167387079,228.997591545,0.0,0.0,0.0,0.0,0.0,0.0,0.0,0.0,0.0,0
1580139904334074541,6175,1580139904332232952,/fgps,1,15,45.6230001914,9.28167435391,229.017962189,0.0,0.0,0.0,0.0,0.0,0.0,0.0,0.0,0.0,0
1580139904433967970,6176,1580139904434425115,/fgps,1,15,45.6230033304,9.28167479382,229.03507385,0.0,0.0,0.0,0.0,0.0,0.0,0.0,0.0,0.0,0
1580139904533957272,6177,1580139904534624099,/fgps,1,15,45.623006499,9.28167524792,229.042777642,0.0,0.0,0.0,0.0,0.0,0.0,0.0,0.0,0.0,0
1580139904634040196,6178,1580139904632394075,/fgps,1,15,45.6230095736,9.28167568961,229.081945086,0.0,0.0,0.0,0.0,0.0,0.0,0.0,0.0,0.0,0
1580139904734017320,6179,1580139904732445955,/fgps,1,15,45.6230126356,9.28167615431,229.100334356,0.0,0.0,0.0,0.0,0.0,0.0,0.0,0.0,0.0,0
1580139904824896754,6180,1580139904826890945,/fgps,1,15,45.6230156778,9.2816766812,229.139305785,0.0,0.0,0.0,0.0,0.0,0.0,0.0,0.0,0.0,0
1580139904931218353,6181,1580139904932512044,/fgps,1,15,45.6230186861,9.28167734397,229.166945037,0.0,0.0,0.0,0.0,0.0,0.0,0.0,0.0,0.0,0
1580139905040299669,6182,1580139905036241054,/fgps,1,15,45.6230216692,9.28167795745,229.182019968,0.0,0.0,0.0,0.0,0.0,0.0,0.0,0.0,0.0,0
1580139905125170991,6183,1580139905126331090,/fgps,1,15,45.623024634,9.28167845874,229.222108649,0.0,0.0,0.0,0.0,0.0,0.0,0.0,0.0,0.0,0
1580139905234278228,6184,1580139905236679077,/fgps,1,15,45.6230275815,9.28167895068,229.258231381,0.0,0.0,0.0,0.0,0.0,0.0,0.0,0.0,0.0,0
1580139905334454796,6185,1580139905334175109,/fgps,1,15,45.6230304803,9.28167936373,229.291713363,0.0,0.0,0.0,0.0,0.0,0.0,0.0,0.0,0.0,0
1580139905431471539,6186,1580139905433413982,/fgps,1,15,45.6230333765,9.28167985069,229.321162463,0.0,0.0,0.0,0.0,0.0,0.0,0.0,0.0,0.0,0
1580139905531611324,6187,1580139905531699895,/fgps,1,15,45.6230362648,9.28168030579,229.368972106,0.0,0.0,0.0,0.0,0.0,0.0,0.0,0.0,0.0,0
