%time,field.header.seq,field.header.stamp,field.header.frame_id,field.status.status,field.status.service,field.latitude,field.longitude,field.altitude,field.position_covariance0,field.position_covariance1,field.position_covariance2,field.position_covariance3,field.position_covariance4,field.position_covariance5,field.position_covariance6,field.position_covariance7,field.position_covariance8,field.position_covariance_type
1580139967795710625,219,1580139967798796892,/rgps,6,15,45.6236931067,9.2817983898,229.628157494,0.0,0.0,0.0,0.0,0.0,0.0,0.0,0.0,0.0,0
1580139967876581673,220,1580139967877914905,/rgps,6,15,45.6237020036,9.28179937461,229.630910941,0.0,0.0,0.0,0.0,0.0,0.0,0.0,0.0,0.0,0
1580139967971207532,221,1580139967974426031,/rgps,6,15,45.6237109429,9.28180034182,229.630555302,0.0,0.0,0.0,0.0,0.0,0.0,0.0,0.0,0.0,0
1580139968080436395,222,1580139968083091974,/rgps,6,15,45.6237199454,9.28180131481,229.632830469,0.0,0.0,0.0,0.0,0.0,0.0,0.0,0.0,0.0,0
1580139968177483704,223,1580139968177479028,/rgps,6,15,45.6237289921,9.28180230598,229.632347874,0.0,0.0,0.0,0.0,0.0,0.0,0.0,0.0,0.0,0
1580139968295744384,224,1580139968293493986,/rgps,6,15,45.6237380142,9.2818033867,229.63960274,0.0,0.0,0.0,0.0,0.0,0.0,0.0,0.0,0.0,0
1580139968389867586,225,1580139968390779972,/rgps,6,15,45.6237470599,9.28180441513,229.650657585,0.0,0.0,0.0,0.0,0.0,0.0,0.0,0.0,0.0,0
1580139968480893577,226,1580139968483114957,/rgps,6,15,45.623756207,9.2818054624,229.655141371,0.0,0.0,0.0,0.0,0.0,0.0,0.0,0.0,0.0,0
1580139968568841564,227,1580139968570138931,/rgps,6,15,45.6237653744,9.28180652408,229.655621733,0.0,0.0,0.0,0.0,0.0,0.0,0.0,0.0,0.0,0
1580139968681202837,228,1580139968681432008,/rgps,6,15,45.6237745507,9.28180761993,229.663119423,0.0,0.0,0.0,0.0,0.0,0.0,0.0,0.0,0.0,0
1580139968793729707,229,1580139968795464038,/rgps,6,15,45.6237837832,9.28180870583,229.662109248,0.0,0.0,0.0,0.0,0.0,0.0,0.0,0.0,0.0,0
1580139968875659074,230,1580139968875607967,/rgps,6,15,45.6237930322,9.28180977676,229.670668773,0.0,0.0,0.0,0.0,0.0,0.0,0.0,0.0,0.0,0
1580139968975323153,231,1580139968977857112,/rgps,6,15,45.6238022626,9.2818108717,229.680141849,0.0,0.0,0.0,0.0,0.0,0.0,0.0,0.0,0.0,0
1580139969081679869,232,1580139969082921028,/rgps,6,15,45.6238115772,9.28181194534,229.680387344,0.0,0.0,0.0,0.0,0.0,0.0,0.0,0.0,0.0,0
1580139969172651590,233,1580139969174226999,/rgps,6,15,45.6238208617,9.28181303497,229.690733578,0.0,0.0,0.0,0.0,0.0,0.0,0.0,0.0,0.0,0
1580139969272921204,234,1580139969274446010,/rgps,6,15,45.6238301989,9.28181412819,229.698593867,0.0,0.0,0.0,0.0,0.0,0.0,0.0,0.0,0.0,0
1580139969369937552,235,1580139969374680042,/rgps,6,15,45.6238394783,9.2818152043,229.71121195,0.0,0.0,0.0,0.0,0.0,0.0,0.0,0.0,0.0,0
1580139969482049857,236,1580139969480952978,/rgps,6,15,45.6238487889,9.28181633177,229.727146883,0.0,0.0,0.0,0.0,0.0,0.0,0.0,0.0,0.0,0
1580139969570065663,237,1580139969572138071,/rgps,6,15,45.6238581412,9.28181739538,229.735106963,0.0,0.0,0.0,0.0,0.0,0.0,0.0,0.0,0.0,0
1580139969676243629,238,1580139969676362037,/rgps,6,15,45.6238674935,9.28181853496,229.748683248,0.0,0.0,0.0,0.0,0.0,0.0,0.0,0.0,0.0,0
1580139969773051516,239,1580139969775595903,/rgps,6,15,45.6238768124,9.28181964804,229.753171788,0.0,0.0,0.0,0.0,0.0,0.0,0.0,0.0,0.0,0
1580139969873414096,240,1580139969875163078,/rgps,6,15,45.6238861929,9.28182072899,229.766524592,0.0,0.0,0.0,0.0,0.0,0.0,0.0,0.0,0.0,0
1580139969976611490,241,1580139969974344015,/rgps,6,15,45.6238955789,9.28182180097,229.777760093,0.0,0.0,0.0,0.0,0.0,0.0,0.0,0.0,0.0,0
1580139970076638646,242,1580139970079169034,/rgps,6,15,45.6239049138,9.28182286749,229.78320422,0.0,0.0,0.0,0.0,0.0,0.0,0.0,0.0,0.0,0
1580139970173697218,243,1580139970174823999,/rgps,6,15,45.6239142508,9.28182392786,229.789045749,0.0,0.0,0.0,0.0,0.0,0.0,0.0,0.0,0.0,0
1580139970273807776,244,1580139970271341085,/rgps,6,15,45.6239236051,9.28182496977,229.793033538,0.0,0.0,0.0,0.0,0.0,0.0,0.0,0.0,0.0,0
1580139970370407688,245,1580139970371119976,/rgps,6,15,45.623932956,9.28182597752,229.80125925,0.0,0.0,0.0,0.0,0.0,0.0,0.0,0.0,0.0,0
1580139970481468302,246,1580139970484559059,/rgps,6,15,45.6239423428,9.28182702992,229.811372373,0.0,0.0,0.0,0.0,0.0,0.0,0.0,0.0,0.0,0
1580139970574090215,247,1580139970573576927,/rgps,6,15,45.6239517139,9.28182806793,229.822499275,0.0,0.0,0.0,0.0,0.0,0.0,0.0,0.0,0.0,0
1580139970683120304,248,1580139970679465055,/rgps,6,15,45.6239610878,9.28182908409,229.821630387,0.0,0.0,0.0,0.0,0.0,0.0,0.0,0.0,0.0,0
1580139970786166917,249,1580139970786000967,/rgps,6,15,45.6239704248,9.28183011457,229.829741252,0.0,0.0,0.0,0.0,0.0,0.0,0.0,0.0,0.0,0
1580139970880217809,250,1580139970876558065,/rgps,6,15,45.6239797488,9.28183116419,229.840157247,0.0,0.0,0.0,0.0,0.0,0.0,0.0,0.0,0.0,0
1580139970977013503,251,1580139970976573944,/rgps,6,15,45.6239890256,9.28183217239,229.852492871,0.0,0.0,0.0,0.0,0.0,0.0,0.0,0.0,0.0,0
1580139971080195136,252,1580139971081949949,/rgps,6,15,45.6239983078,9.28183318615,229.858470219,0.0,0.0,0.0,0.0,0.0,0.0,0.0,0.0,0.0,0
1580139971165531077,253,1580139971169121026,/rgps,6,15,45.6240075898,9.2818341748,229.854975326,0.0,0.0,0.0,0.0,0.0,0.0,0.0,0.0,0.0,0
1580139971271340305,254,1580139971275376081,/rgps,6,15,45.624016819,9.28183520393,229.858774291,0.0,0.0,0.0,0.0,0.0,0.0,0.0,0.0,0.0,0
1580139971377521664,255,1580139971378592014,/rgps,6,15,45.6240259953,9.28183621406,229.864763956,0.0,0.0,0.0,0.0,0.0,0.0,0.0,0.0,0.0,0
1580139971480523481,256,1580139971480443954,/rgps,6,15,45.6240351821,9.28183724204,229.8667303,0.0,0.0,0.0,0.0,0.0,0.0,0.0,0.0,0.0,0
1580139971580759960,257,1580139971580416917,/rgps,6,15,45.624044283,9.28183822675,229.868671768,0.0,0.0,0.0,0.0,0.0,0.0,0.0,0.0,0.0,0
1580139971671711010,258,1580139971673777103,/rgps,6,15,45.624053362,9.28183924407,229.876954016,0.0,0.0,0.0,0.0,0.0,0.0,0.0,0.0,0.0,0
1580139971772121650,259,1580139971771708011,/rgps,6,15,45.6240623887,9.28184025415,229.883874892,0.0,0.0,0.0,0.0,0.0,0.0,0.0,0.0,0.0,0
1580139971874986229,260,1580139971874810934,/rgps,6,15,45.62407131,9.28184130108,229.899860711,0.0,0.0,0.0,0.0,0.0,0.0,0.0,0.0,0.0,0
1580139971975142166,261,1580139971977334976,/rgps,6,15,45.6240802335,9.28184231275,229.911164223,0.0,0.0,0.0,0.0,0.0,0.0,0.0,0.0,0.0,0
1580139972081265086,262,1580139972082305908,/rgps,6,15,45.6240890935,9.2818433428,229.923514618,0.0,0.0,0.0,0.0,0.0,0.0,0.0,0.0,0.0,0
1580139972166237395,263,1580139972170541048,/rgps,6,15,45.6240979248,9.28184438324,229.934668348,0.0,0.0,0.0,0.0,0.0,0.0,0.0,0.0,0.0,0
1580139972275456283,264,1580139972275742053,/rgps,6,15,45.6241066953,9.28184545277,229.939866332,0.0,0.0,0.0,0.0,0.0,0.0,0.0,0.0,0.0,0
1580139972378606621,265,1580139972378865957,/rgps,6,15,45.6241154069,9.28184648403,229.947684325,0.0,0.0,0.0,0.0,0.0,0.0,0.0,0.0,0.0,0
1580139972478765155,266,1580139972478888988,/rgps,6,15,45.6241240321,9.2818475378,229.959934556,0.0,0.0,0.0,0.0,0.0,0.0,0.0,0.0,0.0,0
1580139972572697124,267,1580139972569334030,/rgps,6,15,45.6241325976,9.28184856103,229.96540476,0.0,0.0,0.0,0.0,0.0,0.0,0.0,0.0,0.0,0
1580139972676047960,268,1580139972676507949,/rgps,6,15,45.6241410754,9.28184960265,229.97651491,0.0,0.0,0.0,0.0,0.0,0.0,0.0,0.0,0.0,0
1580139972770144114,269,1580139972771459102,/rgps,6,15,45.6241494429,9.28185063634,229.993564378,0.0,0.0,0.0,0.0,0.0,0.0,0.0,0.0,0.0,0
1580139972876443560,270,1580139972875766992,/rgps,6,15,45.6241577794,9.281851643,230.003230026,0.0,0.0,0.0,0.0,0.0,0.0,0.0,0.0,0.0,0
1580139972994781914,271,1580139972996506929,/rgps,6,15,45.6241660732,9.28185263084,230.01110152,0.0,0.0,0.0,0.0,0.0,0.0,0.0,0.0,0.0,0
1580139973079611407,272,1580139973081871986,/rgps,6,15,45.6241742226,9.28185364164,230.026878363,0.0,0.0,0.0,0.0,0.0,0.0,0.0,0.0,0.0,0
1580139973185709188,273,1580139973185934066,/rgps,6,15,45.6241822595,9.28185466709,230.046256865,0.0,0.0,0.0,0.0,0.0,0.0,0.0,0.0,0.0,0
1580139973273689588,274,1580139973275944948,/rgps,6,15,45.6241903152,9.28185566932,230.057533119,0.0,0.0,0.0,0.0,0.0,0.0,0.0,0.0,0.0,0
1580139973382854150,275,1580139973382416009,/rgps,6,15,45.6241982992,9.28185665801,230.069066349,0.0,0.0,0.0,0.0,0.0,0.0,0.0,0.0,0.0,0
1580139973482880619,276,1580139973484563112,/rgps,6,15,45.6242062861,9.28185766974,230.083282785,0.0,0.0,0.0,0.0,0.0,0.0,0.0,0.0,0.0,0
1580139973570748839,277,1580139973576318979,/rgps,6,15,45.6242141904,9.28185869433,230.100715153,0.0,0.0,0.0,0.0,0.0,0.0,0.0,0.0,0.0,0
1580139973669394120,278,1580139973671142101,/rgps,6,15,45.6242220258,9.28185972275,230.12159833,0.0,0.0,0.0,0.0,0.0,0.0,0.0,0.0,0.0,0
1580139973782999311,279,1580139973785017013,/rgps,6,15,45.6242298204,9.28186071289,230.12990498,0.0,0.0,0.0,0.0,0.0,0.0,0.0,0.0,0.0,0
1580139973883154404,280,1580139973879942893,/rgps,6,15,45.624237571,9.28186172733,230.141867912,0.0,0.0,0.0,0.0,0.0,0.0,0.0,0.0,0.0,0
1580139973980260609,281,1580139973980771064,/rgps,6,15,45.6242453041,9.28186270867,230.149591794,0.0,0.0,0.0,0.0,0.0,0.0,0.0,0.0,0.0,0
1580139974086443271,282,1580139974086093902,/rgps,6,15,45.6242529951,9.28186370149,230.16088666,0.0,0.0,0.0,0.0,0.0,0.0,0.0,0.0,0.0,0
1580139974162206926,283,1580139974167526006,/rgps,6,15,45.6242606128,9.28186473989,230.173791244,0.0,0.0,0.0,0.0,0.0,0.0,0.0,0.0,0.0,0
1580139974271475971,284,1580139974271785974,/rgps,6,15,45.6242680936,9.2818657669,230.186806556,0.0,0.0,0.0,0.0,0.0,0.0,0.0,0.0,0.0,0
1580139974371759059,285,1580139974373869895,/rgps,6,15,45.6242755005,9.28186674291,230.191926314,0.0,0.0,0.0,0.0,0.0,0.0,0.0,0.0,0.0,0
1580139974484026448,286,1580139974485496044,/rgps,6,15,45.6242828029,9.28186778137,230.205673016,0.0,0.0,0.0,0.0,0.0,0.0,0.0,0.0,0.0,0
1580139974571975317,287,1580139974576705932,/rgps,6,15,45.6242900089,9.28186882152,230.212813151,0.0,0.0,0.0,0.0,0.0,0.0,0.0,0.0,0.0,0
1580139974675123461,288,1580139974677392005,/rgps,6,15,45.624297109,9.28186984162,230.224886053,0.0,0.0,0.0,0.0,0.0,0.0,0.0,0.0,0.0,0
1580139974778258858,289,1580139974778177022,/rgps,6,15,45.6243041252,9.28187085383,230.231258573,0.0,0.0,0.0,0.0,0.0,0.0,0.0,0.0,0.0,0
1580139974908605552,290,1580139974904930114,/rgps,6,15,45.6243110556,9.28187185178,230.229693066,0.0,0.0,0.0,0.0,0.0,0.0,0.0,0.0,0.0,0
1580139974978307258,291,1580139974980725049,/rgps,6,15,45.6243179219,9.28187286738,230.236433153,0.0,0.0,0.0,0.0,0.0,0.0,0.0,0.0,0.0,0
1580139975093295317,292,1580139975089943885,/rgps,6,15,45.624324663,9.28187389453,230.241683612,0.0,0.0,0.0,0.0,0.0,0.0,0.0,0.0,0.0,0
1580139975178205253,293,1580139975176722049,/rgps,6,15,45.6243313356,9.28187491137,230.248179268,0.0,0.0,0.0,0.0,0.0,0.0,0.0,0.0,0.0,0
1580139975281324886,294,1580139975279761075,/rgps,6,15,45.6243379351,9.28187591597,230.247205594,0.0,0.0,0.0,0.0,0.0,0.0,0.0,0.0,0.0,0
1580139975378228078,295,1580139975378914117,/rgps,6,15,45.6243444455,9.28187689643,230.252552902,0.0,0.0,0.0,0.0,0.0,0.0,0.0,0.0,0.0,0
1580139975487342107,296,1580139975484464883,/rgps,6,15,45.6243508686,9.28187787654,230.254516484,0.0,0.0,0.0,0.0,0.0,0.0,0.0,0.0,0.0,0
1580139975578235026,297,1580139975579216957,/rgps,6,15,45.6243571864,9.28187886372,230.255419811,0.0,0.0,0.0,0.0,0.0,0.0,0.0,0.0,0.0,0
1580139975675358959,298,1580139975673917055,/rgps,6,15,45.6243634513,9.28187987097,230.260751295,0.0,0.0,0.0,0.0,0.0,0.0,0.0,0.0,0.0,0
1580139975769374946,299,1580139975770792961,/rgps,6,15,45.6243695828,9.28188088939,230.268271951,0.0,0.0,0.0,0.0,0.0,0.0,0.0,0.0,0.0,0
1580139975875493502,300,1580139975876430034,/rgps,6,15,45.6243757003,9.28188194396,230.268444116,0.0,0.0,0.0,0.0,0.0,0.0,0.0,0.0,0.0,0
1580139975981569212,301,1580139975981110095,/rgps,6,15,45.624381729,9.28188298454,230.264515068,0.0,0.0,0.0,0.0,0.0,0.0,0.0,0.0,0.0,0
1580139976087622902,302,1580139976085046052,/rgps,6,15,45.6243877326,9.28188407601,230.263028274,0.0,0.0,0.0,0.0,0.0,0.0,0.0,0.0,0.0,0
1580139976178511150,303,1580139976177054882,/rgps,6,15,45.6243936793,9.28188517286,230.266290258,0.0,0.0,0.0,0.0,0.0,0.0,0.0,0.0,0.0,0
1580139976278533920,304,1580139976279230117,/rgps,6,15,45.6243995149,9.28188636263,230.275953473,0.0,0.0,0.0,0.0,0.0,0.0,0.0,0.0,0.0,0
1580139976374322569,305,1580139976378679990,/rgps,6,15,45.6244053472,9.28188762383,230.26767397,0.0,0.0,0.0,0.0,0.0,0.0,0.0,0.0,0.0,0
1580139976487703789,306,1580139976487129926,/rgps,6,15,45.6244110923,9.28188892593,230.260341928,0.0,0.0,0.0,0.0,0.0,0.0,0.0,0.0,0.0,0
1580139976578737717,307,1580139976579725980,/rgps,6,15,45.6244168527,9.28189031632,230.259156238,0.0,0.0,0.0,0.0,0.0,0.0,0.0,0.0,0.0,0
1580139976675835751,308,1580139976677223920,/rgps,6,15,45.6244225753,9.2818918641,230.265841679,0.0,0.0,0.0,0.0,0.0,0.0,0.0,0.0,0.0,0
1580139976772985477,309,1580139976778016090,/rgps,6,15,45.624428248,9.28189349739,230.263123241,0.0,0.0,0.0,0.0,0.0,0.0,0.0,0.0,0.0,0
1580139976876030384,310,1580139976873095035,/rgps,6,15,45.624433843,9.28189522526,230.26358476,0.0,0.0,0.0,0.0,0.0,0.0,0.0,0.0,0.0,0
1580139976988273195,311,1580139976992503881,/rgps,6,15,45.6244394303,9.28189707236,230.261431997,0.0,0.0,0.0,0.0,0.0,0.0,0.0,0.0,0.0,0
1580139977085655330,312,1580139977088087081,/rgps,6,15,45.6244449594,9.28189901949,230.263124824,0.0,0.0,0.0,0.0,0.0,0.0,0.0,0.0,0.0,0
1580139977179510662,313,1580139977176894903,/rgps,6,15,45.6244504271,9.2819011106,230.269012125,0.0,0.0,0.0,0.0,0.0,0.0,0.0,0.0,0.0,0
1580139977276765716,314,1580139977276925086,/rgps,6,15,45.6244558319,9.28190338871,230.26724098,0.0,0.0,0.0,0.0,0.0,0.0,0.0,0.0,0.0,0
1580139977379878537,315,1580139977378371953,/rgps,6,15,45.6244611496,9.28190585483,230.257800217,0.0,0.0,0.0,0.0,0.0,0.0,0.0,0.0,0.0,0
1580139977489121772,316,1580139977491451978,/rgps,6,15,45.6244664135,9.28190846907,230.246697551,0.0,0.0,0.0,0.0,0.0,0.0,0.0,0.0,0.0,0
1580139977574022161,317,1580139977571014881,/rgps,6,15,45.6244716361,9.28191123612,230.246920178,0.0,0.0,0.0,0.0,0.0,0.0,0.0,0.0,0.0,0
1580139977671174506,318,1580139977672137975,/rgps,6,15,45.6244767481,9.28191424639,230.256885271,0.0,0.0,0.0,0.0,0.0,0.0,0.0,0.0,0.0,0
1580139977777259416,319,1580139977777494907,/rgps,6,15,45.6244817411,9.28191742443,230.250122301,0.0,0.0,0.0,0.0,0.0,0.0,0.0,0.0,0.0,0
1580139977880265004,320,1580139977876931905,/rgps,6,15,45.6244866582,9.28192078747,230.240715115,0.0,0.0,0.0,0.0,0.0,0.0,0.0,0.0,0.0,0
1580139977977146290,321,1580139977979721069,/rgps,6,15,45.6244914508,9.28192433667,230.235964134,0.0,0.0,0.0,0.0,0.0,0.0,0.0,0.0,0.0,0
1580139978083190344,322,1580139978088680028,/rgps,6,15,45.6244961618,9.28192807044,230.23738852,0.0,0.0,0.0,0.0,0.0,0.0,0.0,0.0,0.0,0
1580139978186316604,323,1580139978185364007,/rgps,6,15,45.6245007614,9.28193201175,230.236567025,0.0,0.0,0.0,0.0,0.0,0.0,0.0,0.0,0.0,0
1580139978283420561,324,1580139978283341884,/rgps,6,15,45.6245052136,9.28193612994,230.234676923,0.0,0.0,0.0,0.0,0.0,0.0,0.0,0.0,0.0,0
1580139978380303000,325,1580139978382632017,/rgps,6,15,45.6245095492,9.28194041644,230.229443496,0.0,0.0,0.0,0.0,0.0,0.0,0.0,0.0,0.0,0
1580139978483431529,326,1580139978485836029,/rgps,6,15,45.6245137803,9.28194489512,230.232751767,0.0,0.0,0.0,0.0,0.0,0.0,0.0,0.0,0.0,0
1580139978574315468,327,1580139978576616048,/rgps,6,15,45.6245178477,9.28194957231,230.234904183,0.0,0.0,0.0,0.0,0.0,0.0,0.0,0.0,0.0,0
1580139978680328245,328,1580139978678834915,/rgps,6,15,45.6245217681,9.28195447574,230.234619662,0.0,0.0,0.0,0.0,0.0,0.0,0.0,0.0,0.0,0
1580139978777413167,329,1580139978778965950,/rgps,6,15,45.6245255486,9.2819595684,230.236055397,0.0,0.0,0.0,0.0,0.0,0.0,0.0,0.0,0.0,0
1580139978880762437,330,1580139978880330085,/rgps,6,15,45.6245291976,9.28196487716,230.238321783,0.0,0.0,0.0,0.0,0.0,0.0,0.0,0.0,0.0,0
1580139978974613183,331,1580139978979840040,/rgps,6,15,45.624532674,9.28197034191,230.245695894,0.0,0.0,0.0,0.0,0.0,0.0,0.0,0.0,0.0,0
1580139979086871113,332,1580139979085964918,/rgps,6,15,45.6245360169,9.28197594694,230.248671911,0.0,0.0,0.0,0.0,0.0,0.0,0.0,0.0,0.0,0
1580139979177867585,333,1580139979179769039,/rgps,6,15,45.6245392377,9.28198171055,230.252478373,0.0,0.0,0.0,0.0,0.0,0.0,0.0,0.0,0.0,0
1580139979287056052,334,1580139979286417961,/rgps,6,15,45.6245422148,9.28198771053,230.258428356,0.0,0.0,0.0,0.0,0.0,0.0,0.0,0.0,0.0,0
1580139979381136176,335,1580139979381766080,/rgps,6,15,45.6245450635,9.28199383307,230.267471252,0.0,0.0,0.0,0.0,0.0,0.0,0.0,0.0,0.0,0
1580139979477372033,336,1580139979483338117,/rgps,6,15,45.624547727,9.28200006588,230.271139625,0.0,0.0,0.0,0.0,0.0,0.0,0.0,0.0,0.0,0
1580139979575303724,337,1580139979574780941,/rgps,6,15,45.6245502436,9.2820064146,230.277341953,0.0,0.0,0.0,0.0,0.0,0.0,0.0,0.0,0.0,0
1580139979678281325,338,1580139979678369998,/rgps,6,15,45.6245525425,9.28201292559,230.286203785,0.0,0.0,0.0,0.0,0.0,0.0,0.0,0.0,0.0,0
1580139979778211092,339,1580139979778119087,/rgps,6,15,45.6245547346,9.28201957731,230.29298571,0.0,0.0,0.0,0.0,0.0,0.0,0.0,0.0,0.0,0
1580139979881196557,340,1580139979880340099,/rgps,6,15,45.6245567318,9.28202631986,230.299377603,0.0,0.0,0.0,0.0,0.0,0.0,0.0,0.0,0.0,0
1580139979990246812,341,1580139979988636970,/rgps,6,15,45.6245585217,9.28203312025,230.304895763,0.0,0.0,0.0,0.0,0.0,0.0,0.0,0.0,0.0,0
1580139980084298610,342,1580139980085882902,/rgps,6,15,45.6245601578,9.28204003347,230.309814677,0.0,0.0,0.0,0.0,0.0,0.0,0.0,0.0,0.0,0
1580139980178289666,343,1580139980177731990,/rgps,6,15,45.6245616017,9.28204702106,230.317636742,0.0,0.0,0.0,0.0,0.0,0.0,0.0,0.0,0.0,0
1580139980278242567,344,1580139980279958009,/rgps,6,15,45.6245628504,9.28205403418,230.318540963,0.0,0.0,0.0,0.0,0.0,0.0,0.0,0.0,0.0,0
1580139980384468693,345,1580139980383002996,/rgps,6,15,45.6245639329,9.28206108676,230.319954842,0.0,0.0,0.0,0.0,0.0,0.0,0.0,0.0,0.0,0
1580139980487425566,346,1580139980489495992,/rgps,6,15,45.6245648082,9.28206821397,230.32330149,0.0,0.0,0.0,0.0,0.0,0.0,0.0,0.0,0.0,0
1580139980572231377,347,1580139980572338104,/rgps,6,15,45.6245654852,9.28207539443,230.326060321,0.0,0.0,0.0,0.0,0.0,0.0,0.0,0.0,0.0,0
1580139980675137252,348,1580139980676282882,/rgps,6,15,45.6245660018,9.28208259965,230.325698943,0.0,0.0,0.0,0.0,0.0,0.0,0.0,0.0,0.0,0
1580139980778248589,349,1580139980780066967,/rgps,6,15,45.6245663085,9.28208983911,230.330647484,0.0,0.0,0.0,0.0,0.0,0.0,0.0,0.0,0.0,0
1580139980875443436,350,1580139980877656936,/rgps,6,15,45.6245664513,9.28209711335,230.332441041,0.0,0.0,0.0,0.0,0.0,0.0,0.0,0.0,0.0,0
1580139980981595784,351,1580139980983313083,/rgps,6,15,45.6245664404,9.28210436211,230.332059903,0.0,0.0,0.0,0.0,0.0,0.0,0.0,0.0,0.0,0
1580139981093914446,352,1580139981093589067,/rgps,6,15,45.6245662996,9.28211164259,230.332865454,0.0,0.0,0.0,0.0,0.0,0.0,0.0,0.0,0.0,0
1580139981175865875,353,1580139981176621913,/rgps,6,15,45.6245660567,9.28211890648,230.337514544,0.0,0.0,0.0,0.0,0.0,0.0,0.0,0.0,0.0,0
1580139981281902910,354,1580139981278239965,/rgps,6,15,45.62456575,9.28212621398,230.335469811,0.0,0.0,0.0,0.0,0.0,0.0,0.0,0.0,0.0,0
1580139981382024649,355,1580139981381747007,/rgps,6,15,45.6245653282,9.282133476,230.332404066,0.0,0.0,0.0,0.0,0.0,0.0,0.0,0.0,0.0,0
1580139981491293857,356,1580139981488749027,/rgps,6,15,45.6245647911,9.28214076102,230.337034252,0.0,0.0,0.0,0.0,0.0,0.0,0.0,0.0,0.0,0
1580139981579126940,357,1580139981579351902,/rgps,6,15,45.624564185,9.28214804561,230.33630071,0.0,0.0,0.0,0.0,0.0,0.0,0.0,0.0,0.0,0
1580139981676665227,358,1580139981678800106,/rgps,6,15,45.6245635265,9.28215532637,230.338915342,0.0,0.0,0.0,0.0,0.0,0.0,0.0,0.0,0.0,0
1580139981779516461,359,1580139981781461000,/rgps,6,15,45.6245628792,9.28216264001,230.334805997,0.0,0.0,0.0,0.0,0.0,0.0,0.0,0.0,0.0,0
1580139981876606575,360,1580139981877366065,/rgps,6,15,45.624562254,9.2821699645,230.334291631,0.0,0.0,0.0,0.0,0.0,0.0,0.0,0.0,0.0,0
1580139981976745409,361,1580139981978646039,/rgps,6,15,45.6245616354,9.28217732347,230.337130127,0.0,0.0,0.0,0.0,0.0,0.0,0.0,0.0,0.0,0
1580139982089017203,362,1580139982091350078,/rgps,6,15,45.6245609858,9.28218472722,230.340300853,0.0,0.0,0.0,0.0,0.0,0.0,0.0,0.0,0.0,0
1580139982173950950,363,1580139982176043987,/rgps,6,15,45.6245603691,9.28219213695,230.339078486,0.0,0.0,0.0,0.0,0.0,0.0,0.0,0.0,0.0,0
1580139982277067974,364,1580139982277759075,/rgps,6,15,45.6245597712,9.2821995868,230.340071876,0.0,0.0,0.0,0.0,0.0,0.0,0.0,0.0,0.0,0
1580139982380143709,365,1580139982381918907,/rgps,6,15,45.6245592357,9.28220705331,230.336809293,0.0,0.0,0.0,0.0,0.0,0.0,0.0,0.0,0.0,0
1580139982480282751,366,1580139982481293916,/rgps,6,15,45.6245587459,9.28221452497,230.336313215,0.0,0.0,0.0,0.0,0.0,0.0,0.0,0.0,0.0,0
1580139982583464150,367,1580139982584769964,/rgps,6,15,45.6245583324,9.28222203393,230.336225752,0.0,0.0,0.0,0.0,0.0,0.0,0.0,0.0,0.0,0
1580139982671239365,368,1580139982673485040,/rgps,6,15,45.6245579621,9.28222956491,230.33226999,0.0,0.0,0.0,0.0,0.0,0.0,0.0,0.0,0.0,0
1580139982789416339,369,1580139982789370059,/rgps,6,15,45.6245576959,9.28223709136,230.330143913,0.0,0.0,0.0,0.0,0.0,0.0,0.0,0.0,0.0,0
1580139982880417021,370,1580139982882013082,/rgps,6,15,45.6245575542,9.28224466432,230.333062785,0.0,0.0,0.0,0.0,0.0,0.0,0.0,0.0,0.0,0
1580139982983430286,371,1580139982981370925,/rgps,6,15,45.6245574913,9.28225228069,230.338615392,0.0,0.0,0.0,0.0,0.0,0.0,0.0,0.0,0.0,0
1580139983092505534,372,1580139983093620061,/rgps,6,15,45.6245575476,9.28225987651,230.339672545,0.0,0.0,0.0,0.0,0.0,0.0,0.0,0.0,0.0,0
1580139983180355142,373,1580139983179831027,/rgps,6,15,45.6245577805,9.28226747528,230.337041851,0.0,0.0,0.0,0.0,0.0,0.0,0.0,0.0,0.0,0
1580139983271470669,374,1580139983276715040,/rgps,6,15,45.6245581313,9.28227505182,230.345171039,0.0,0.0,0.0,0.0,0.0,0.0,0.0,0.0,0.0,0
1580139983383671647,375,1580139983381262063,/rgps,6,15,45.624558609,9.28228264351,230.348625967,0.0,0.0,0.0,0.0,0.0,0.0,0.0,0.0,0.0,0
1580139983480707396,376,1580139983482165098,/rgps,6,15,45.6245592504,9.28229020766,230.35096009,0.0,0.0,0.0,0.0,0.0,0.0,0.0,0.0,0.0,0
1580139983580894940,377,1580139983583118915,/rgps,6,15,45.6245600316,9.28229776644,230.349834254,0.0,0.0,0.0,0.0,0.0,0.0,0.0,0.0,0.0,0
1580139983683370527,378,1580139983684357881,/rgps,6,15,45.6245610081,9.28230529686,230.350243007,0.0,0.0,0.0,0.0,0.0,0.0,0.0,0.0,0.0,0
1580139983780953395,379,1580139983780800104,/rgps,6,15,45.6245621033,9.2823127673,230.353271512,0.0,0.0,0.0,0.0,0.0,0.0,0.0,0.0,0.0,0
1580139983876454542,380,1580139983881556034,/rgps,6,15,45.6245634004,9.28232020659,230.355760356,0.0,0.0,0.0,0.0,0.0,0.0,0.0,0.0,0.0,0
1580139983981240924,381,1580139983978256940,/rgps,6,15,45.624564921,9.28232755554,230.352038581,0.0,0.0,0.0,0.0,0.0,0.0,0.0,0.0,0.0,0
1580139984093465045,382,1580139984094475030,/rgps,6,15,45.6245665504,9.2823348008,230.349327481,0.0,0.0,0.0,0.0,0.0,0.0,0.0,0.0,0.0,0
1580139984172215198,383,1580139984175723075,/rgps,6,15,45.6245684399,9.28234202259,230.35099543,0.0,0.0,0.0,0.0,0.0,0.0,0.0,0.0,0.0,0
1580139984281303392,384,1580139984281579017,/rgps,6,15,45.6245705109,9.28234911523,230.356454137,0.0,0.0,0.0,0.0,0.0,0.0,0.0,0.0,0.0,0
1580139984381231748,385,1580139984380232095,/rgps,6,15,45.6245727875,9.28235612389,230.361891854,0.0,0.0,0.0,0.0,0.0,0.0,0.0,0.0,0.0,0
1580139984487312461,386,1580139984485008955,/rgps,6,15,45.6245752791,9.28236301561,230.361149844,0.0,0.0,0.0,0.0,0.0,0.0,0.0,0.0,0.0,0
1580139984578174890,387,1580139984578355073,/rgps,6,15,45.624577922,9.28236974082,230.366598217,0.0,0.0,0.0,0.0,0.0,0.0,0.0,0.0,0.0,0
1580139984681378051,388,1580139984680392980,/rgps,6,15,45.624580747,9.28237639896,230.373999585,0.0,0.0,0.0,0.0,0.0,0.0,0.0,0.0,0.0,0
1580139984796487831,389,1580139984797184944,/rgps,6,15,45.6245837453,9.28238285846,230.380250984,0.0,0.0,0.0,0.0,0.0,0.0,0.0,0.0,0.0,0
1580139984878431718,390,1580139984877676963,/rgps,6,15,45.6245869769,9.28238915958,230.385284302,0.0,0.0,0.0,0.0,0.0,0.0,0.0,0.0,0.0,0
1580139984975568841,391,1580139984977143049,/rgps,6,15,45.6245903358,9.28239525193,230.390215549,0.0,0.0,0.0,0.0,0.0,0.0,0.0,0.0,0.0,0
1580139985093818190,392,1580139985093038082,/rgps,6,15,45.624593947,9.28240113943,230.399554219,0.0,0.0,0.0,0.0,0.0,0.0,0.0,0.0,0.0,0
1580139985175341991,393,1580139985177035093,/rgps,6,15,45.6245976937,9.28240682588,230.40064699,0.0,0.0,0.0,0.0,0.0,0.0,0.0,0.0,0.0,0
1580139985278122321,394,1580139985279405117,/rgps,6,15,45.6246015905,9.28241231342,230.406618085,0.0,0.0,0.0,0.0,0.0,0.0,0.0,0.0,0.0,0
1580139985375786695,395,1580139985377722978,/rgps,6,15,45.6246056555,9.28241756649,230.411628706,0.0,0.0,0.0,0.0,0.0,0.0,0.0,0.0,0.0,0
1580139985484903085,396,1580139985486418008,/rgps,6,15,45.6246098906,9.28242260365,230.410968111,0.0,0.0,0.0,0.0,0.0,0.0,0.0,0.0,0.0,0
1580139985575893033,397,1580139985578052997,/rgps,6,15,45.6246143242,9.28242733304,230.420903086,0.0,0.0,0.0,0.0,0.0,0.0,0.0,0.0,0.0,0
1580139985677895941,398,1580139985678473949,/rgps,6,15,45.6246188736,9.2824318504,230.42492362,0.0,0.0,0.0,0.0,0.0,0.0,0.0,0.0,0.0,0
1580139985778986491,399,1580139985779690980,/rgps,6,15,45.6246235816,9.28243611653,230.42983667,0.0,0.0,0.0,0.0,0.0,0.0,0.0,0.0,0.0,0
1580139985882255386,400,1580139985881844043,/rgps,6,15,45.624628477,9.2824400975,230.446344724,0.0,0.0,0.0,0.0,0.0,0.0,0.0,0.0,0.0,0
1580139985979359033,401,1580139985980303049,/rgps,6,15,45.6246334955,9.2824437857,230.456514589,0.0,0.0,0.0,0.0,0.0,0.0,0.0,0.0,0.0,0
1580139986115856910,402,1580139986113647937,/rgps,6,15,45.6246386545,9.28244719454,230.456641864,0.0,0.0,0.0,0.0,0.0,0.0,0.0,0.0,0.0,0
1580139986176612962,403,1580139986178615093,/rgps,6,15,45.6246438993,9.28245027823,230.464143608,0.0,0.0,0.0,0.0,0.0,0.0,0.0,0.0,0.0,0
1580139986274037677,404,1580139986278677940,/rgps,6,15,45.6246492599,9.28245310918,230.473515163,0.0,0.0,0.0,0.0,0.0,0.0,0.0,0.0,0.0,0
1580139986375466222,405,1580139986377526044,/rgps,6,15,45.6246547632,9.28245560343,230.473616832,0.0,0.0,0.0,0.0,0.0,0.0,0.0,0.0,0.0,0
1580139986476223615,406,1580139986478322982,/rgps,6,15,45.62466034,9.28245778865,230.484432431,0.0,0.0,0.0,0.0,0.0,0.0,0.0,0.0,0.0,0
1580139986582607625,407,1580139986582926988,/rgps,6,15,45.6246660276,9.28245969265,230.491204123,0.0,0.0,0.0,0.0,0.0,0.0,0.0,0.0,0.0,0
1580139986676693814,408,1580139986677690029,/rgps,6,15,45.6246717922,9.28246133325,230.495658191,0.0,0.0,0.0,0.0,0.0,0.0,0.0,0.0,0.0,0
1580139986782698521,409,1580139986780723094,/rgps,6,15,45.6246776277,9.28246270399,230.502826163,0.0,0.0,0.0,0.0,0.0,0.0,0.0,0.0,0.0,0
1580139986879709303,410,1580139986881858110,/rgps,6,15,45.6246835239,9.28246381869,230.513113889,0.0,0.0,0.0,0.0,0.0,0.0,0.0,0.0,0.0,0
1580139986994905170,411,1580139986998866081,/rgps,6,15,45.6246894862,9.28246468422,230.525294627,0.0,0.0,0.0,0.0,0.0,0.0,0.0,0.0,0.0,0
1580139987094837110,412,1580139987097106933,/rgps,6,15,45.6246955519,9.2824652923,230.531559349,0.0,0.0,0.0,0.0,0.0,0.0,0.0,0.0,0.0,0
1580139987200980321,413,1580139987201711893,/rgps,6,15,45.624701643,9.28246569988,230.541248647,0.0,0.0,0.0,0.0,0.0,0.0,0.0,0.0,0.0,0
1580139987279813685,414,1580139987282243967,/rgps,6,15,45.6247077801,9.2824659483,230.553387143,0.0,0.0,0.0,0.0,0.0,0.0,0.0,0.0,0.0,0
1580139987382788436,415,1580139987379585981,/rgps,6,15,45.6247139505,9.28246600127,230.558443831,0.0,0.0,0.0,0.0,0.0,0.0,0.0,0.0,0.0,0
1580139987482880547,416,1580139987486588001,/rgps,6,15,45.6247201994,9.28246584081,230.563852006,0.0,0.0,0.0,0.0,0.0,0.0,0.0,0.0,0.0,0
1580139987579794237,417,1580139987577301025,/rgps,6,15,45.6247264924,9.28246550112,230.568932802,0.0,0.0,0.0,0.0,0.0,0.0,0.0,0.0,0.0,0
1580139987679831445,418,1580139987680380105,/rgps,6,15,45.6247327896,9.28246511706,230.578821533,0.0,0.0,0.0,0.0,0.0,0.0,0.0,0.0,0.0,0
1580139987780050871,419,1580139987780689001,/rgps,6,15,45.6247391705,9.2824645726,230.585294619,0.0,0.0,0.0,0.0,0.0,0.0,0.0,0.0,0.0,0
1580139987880061627,420,1580139987880816936,/rgps,6,15,45.6247455577,9.28246384296,230.585442747,0.0,0.0,0.0,0.0,0.0,0.0,0.0,0.0,0.0,0
1580139987980066046,421,1580139987978270053,/rgps,6,15,45.6247519842,9.28246296124,230.586274167,0.0,0.0,0.0,0.0,0.0,0.0,0.0,0.0,0.0,0
1580139988095425157,422,1580139988096594095,/rgps,6,15,45.62475846,9.28246193245,230.59029131,0.0,0.0,0.0,0.0,0.0,0.0,0.0,0.0,0.0,0
1580139988174230656,423,1580139988171672105,/rgps,6,15,45.6247649687,9.28246077678,230.599880109,0.0,0.0,0.0,0.0,0.0,0.0,0.0,0.0,0.0,0
1580139988283051518,424,1580139988280309915,/rgps,6,15,45.6247714974,9.28245952171,230.607126354,0.0,0.0,0.0,0.0,0.0,0.0,0.0,0.0,0.0,0
1580139988377054822,425,1580139988378741979,/rgps,6,15,45.6247781936,9.28245823236,230.605486647,0.0,0.0,0.0,0.0,0.0,0.0,0.0,0.0,0.0,0
1580139988483247459,426,1580139988485188961,/rgps,6,15,45.6247848575,9.28245680165,230.621783592,0.0,0.0,0.0,0.0,0.0,0.0,0.0,0.0,0.0,0
1580139988577288684,427,1580139988575485944,/rgps,6,15,45.6247915831,9.28245530008,230.627321847,0.0,0.0,0.0,0.0,0.0,0.0,0.0,0.0,0.0,0
1580139988683437434,428,1580139988681427955,/rgps,6,15,45.6247982373,9.28245361821,230.641272687,0.0,0.0,0.0,0.0,0.0,0.0,0.0,0.0,0.0,0
1580139988805886576,429,1580139988808768033,/rgps,6,15,45.624805051,9.28245193645,230.64843878,0.0,0.0,0.0,0.0,0.0,0.0,0.0,0.0,0.0,0
1580139988880401624,430,1580139988885076045,/rgps,6,15,45.6248118949,9.28245015624,230.657126431,0.0,0.0,0.0,0.0,0.0,0.0,0.0,0.0,0.0,0
1580139988992661781,431,1580139988992857933,/rgps,6,15,45.6248187833,9.28244829596,230.66535829,0.0,0.0,0.0,0.0,0.0,0.0,0.0,0.0,0.0,0
1580139989095650163,432,1580139989096260070,/rgps,6,15,45.6248257183,9.28244642344,230.671621999,0.0,0.0,0.0,0.0,0.0,0.0,0.0,0.0,0.0,0
1580139989183434119,433,1580139989183763980,/rgps,6,15,45.6248326928,9.28244448876,230.679017261,0.0,0.0,0.0,0.0,0.0,0.0,0.0,0.0,0.0,0
1580139989271304615,434,1580139989273442029,/rgps,6,15,45.6248397421,9.28244250573,230.689514999,0.0,0.0,0.0,0.0,0.0,0.0,0.0,0.0,0.0,0
1580139989380548907,435,1580139989380639076,/rgps,6,15,45.6248467885,9.28244042604,230.697491811,0.0,0.0,0.0,0.0,0.0,0.0,0.0,0.0,0.0,0
1580139989480570340,436,1580139989482317924,/rgps,6,15,45.6248538779,9.28243836084,230.698864137,0.0,0.0,0.0,0.0,0.0,0.0,0.0,0.0,0.0,0
1580139989571421868,437,1580139989572000980,/rgps,6,15,45.6248609724,9.28243622062,230.704474454,0.0,0.0,0.0,0.0,0.0,0.0,0.0,0.0,0.0,0
1580139989677738291,438,1580139989680002927,/rgps,6,15,45.6248681239,9.28243399319,230.71345678,0.0,0.0,0.0,0.0,0.0,0.0,0.0,0.0,0.0,0
1580139989780996982,439,1580139989778636932,/rgps,6,15,45.6248753408,9.28243175941,230.724649696,0.0,0.0,0.0,0.0,0.0,0.0,0.0,0.0,0.0,0
1580139989896244295,440,1580139989898678064,/rgps,6,15,45.6248825609,9.28242946478,230.730512745,0.0,0.0,0.0,0.0,0.0,0.0,0.0,0.0,0.0,0
1580139989990266866,441,1580139989991981029,/rgps,6,15,45.6248897926,9.28242709183,230.745480759,0.0,0.0,0.0,0.0,0.0,0.0,0.0,0.0,0.0,0
1580139990096429493,442,1580139990094372034,/rgps,6,15,45.6248971349,9.28242478588,230.750869509,0.0,0.0,0.0,0.0,0.0,0.0,0.0,0.0,0.0,0
1580139990178264581,443,1580139990180022954,/rgps,6,15,45.6249044842,9.28242235675,230.764853786,0.0,0.0,0.0,0.0,0.0,0.0,0.0,0.0,0.0,0
1580139990293422974,444,1580139990297852039,/rgps,6,15,45.6249119203,9.28241995871,230.760146496,0.0,0.0,0.0,0.0,0.0,0.0,0.0,0.0,0.0,0
1580139990378037611,445,1580139990375519990,/rgps,6,15,45.624919292,9.28241740069,230.774442028,0.0,0.0,0.0,0.0,0.0,0.0,0.0,0.0,0.0,0
1580139990490004908,446,1580139990488035917,/rgps,6,15,45.6249267542,9.28241485393,230.77937665,0.0,0.0,0.0,0.0,0.0,0.0,0.0,0.0,0.0,0
1580139990574899399,447,1580139990577320098,/rgps,6,15,45.6249342618,9.28241225871,230.790245571,0.0,0.0,0.0,0.0,0.0,0.0,0.0,0.0,0.0,0
1580139990671914207,448,1580139990672669887,/rgps,6,15,45.6249417869,9.28240965285,230.794564874,0.0,0.0,0.0,0.0,0.0,0.0,0.0,0.0,0.0,0
1580139990781085868,449,1580139990778465032,/rgps,6,15,45.624949343,9.28240700413,230.802799986,0.0,0.0,0.0,0.0,0.0,0.0,0.0,0.0,0.0,0
1580139990875148287,450,1580139990879357099,/rgps,6,15,45.62495693,9.28240431744,230.807108346,0.0,0.0,0.0,0.0,0.0,0.0,0.0,0.0,0.0,0
1580139990986942668,451,1580139990989331960,/rgps,6,15,45.6249645331,9.28240157078,230.816911868,0.0,0.0,0.0,0.0,0.0,0.0,0.0,0.0,0.0,0
1580139991090249879,452,1580139991091072082,/rgps,6,15,45.6249721535,9.28239883445,230.826538364,0.0,0.0,0.0,0.0,0.0,0.0,0.0,0.0,0.0,0
1580139991174983687,453,1580139991175582885,/rgps,6,15,45.6249798396,9.28239604191,230.839687852,0.0,0.0,0.0,0.0,0.0,0.0,0.0,0.0,0.0,0
1580139991269988617,454,1580139991275372982,/rgps,6,15,45.6249875323,9.28239320778,230.852436503,0.0,0.0,0.0,0.0,0.0,0.0,0.0,0.0,0.0,0
1580139991387299787,455,1580139991387967109,/rgps,6,15,45.6249952832,9.28239044204,230.852357329,0.0,0.0,0.0,0.0,0.0,0.0,0.0,0.0,0.0,0
1580139991484360943,456,1580139991484730005,/rgps,6,15,45.625003056,9.28238761439,230.861465894,0.0,0.0,0.0,0.0,0.0,0.0,0.0,0.0,0.0,0
1580139991569388922,457,1580139991571824073,/rgps,6,15,45.6250108146,9.28238479962,230.877248734,0.0,0.0,0.0,0.0,0.0,0.0,0.0,0.0,0.0,0
1580139991672557239,458,1580139991672043085,/rgps,6,15,45.625018536,9.28238198654,230.888563075,0.0,0.0,0.0,0.0,0.0,0.0,0.0,0.0,0.0,0
1580139991775501967,459,1580139991777856111,/rgps,6,15,45.6250262194,9.28237913552,230.898481281,0.0,0.0,0.0,0.0,0.0,0.0,0.0,0.0,0.0,0
1580139991887607941,460,1580139991889348030,/rgps,6,15,45.6250339019,9.28237629522,230.910035815,0.0,0.0,0.0,0.0,0.0,0.0,0.0,0.0,0.0,0
1580139991984812772,461,1580139991985006093,/rgps,6,15,45.6250416011,9.28237349034,230.918000355,0.0,0.0,0.0,0.0,0.0,0.0,0.0,0.0,0.0,0
1580139992093853733,462,1580139992096309900,/rgps,6,15,45.6250492494,9.28237069051,230.923648628,0.0,0.0,0.0,0.0,0.0,0.0,0.0,0.0,0.0,0
1580139992176358439,463,1580139992175394058,/rgps,6,15,45.6250569273,9.28236788096,230.927971661,0.0,0.0,0.0,0.0,0.0,0.0,0.0,0.0,0.0,0
1580139992290880161,464,1580139992286912918,/rgps,6,15,45.6250645884,9.28236507613,230.934664843,0.0,0.0,0.0,0.0,0.0,0.0,0.0,0.0,0.0,0
1580139992369766132,465,1580139992374476909,/rgps,6,15,45.6250723091,9.282362215,230.936239014,0.0,0.0,0.0,0.0,0.0,0.0,0.0,0.0,0.0,0
1580139992494084168,466,1580139992496959924,/rgps,6,15,45.6250801535,9.28235930551,230.947261325,0.0,0.0,0.0,0.0,0.0,0.0,0.0,0.0,0.0,0
1580139992578898409,467,1580139992581064939,/rgps,6,15,45.6250880344,9.28235641345,230.961145972,0.0,0.0,0.0,0.0,0.0,0.0,0.0,0.0,0.0,0
1580139992691046556,468,1580139992688519001,/rgps,6,15,45.6250959651,9.28235346359,230.968318844,0.0,0.0,0.0,0.0,0.0,0.0,0.0,0.0,0.0,0
1580139992769934116,469,1580139992771518945,/rgps,6,15,45.6251039129,9.28235048586,230.976463487,0.0,0.0,0.0,0.0,0.0,0.0,0.0,0.0,0.0,0
1580139992876064066,470,1580139992875427961,/rgps,6,15,45.6251119848,9.28234742294,230.983797562,0.0,0.0,0.0,0.0,0.0,0.0,0.0,0.0,0.0,0
1580139992994244344,471,1580139992996417045,/rgps,6,15,45.6251201651,9.28234433967,231.001049804,0.0,0.0,0.0,0.0,0.0,0.0,0.0,0.0,0.0,0
1580139993094212749,472,1580139993093437910,/rgps,6,15,45.6251283595,9.28234128889,231.010870584,0.0,0.0,0.0,0.0,0.0,0.0,0.0,0.0,0.0,0
1580139993176045114,473,1580139993177005052,/rgps,6,15,45.625136672,9.28233825786,231.005488623,0.0,0.0,0.0,0.0,0.0,0.0,0.0,0.0,0.0,0
1580139993288168164,474,1580139993289227962,/rgps,6,15,45.6251450435,9.28233509928,231.010273028,0.0,0.0,0.0,0.0,0.0,0.0,0.0,0.0,0.0,0
1580139993379260562,475,1580139993380460977,/rgps,6,15,45.6251535088,9.28233189223,231.029246443,0.0,0.0,0.0,0.0,0.0,0.0,0.0,0.0,0.0,0
1580139993485481587,476,1580139993487149953,/rgps,6,15,45.625162002,9.2823286971,231.031684888,0.0,0.0,0.0,0.0,0.0,0.0,0.0,0.0,0.0,0
1580139993582373011,477,1580139993579809904,/rgps,6,15,45.6251705712,9.28232549185,231.037436186,0.0,0.0,0.0,0.0,0.0,0.0,0.0,0.0,0.0,0
1580139993676411073,478,1580139993675887107,/rgps,6,15,45.6251791977,9.28232222348,231.047954892,0.0,0.0,0.0,0.0,0.0,0.0,0.0,0.0,0.0,0
1580139993776371183,479,1580139993778367042,/rgps,6,15,45.6251878634,9.28231889795,231.063235968,0.0,0.0,0.0,0.0,0.0,0.0,0.0,0.0,0.0,0
1580139993888527618,480,1580139993888688087,/rgps,6,15,45.6251965273,9.28231555667,231.06514114,0.0,0.0,0.0,0.0,0.0,0.0,0.0,0.0,0.0,0
1580139993982444133,481,1580139993983861923,/rgps,6,15,45.6252052642,9.28231215171,231.077435607,0.0,0.0,0.0,0.0,0.0,0.0,0.0,0.0,0.0,0
1580139994088923576,482,1580139994089472055,/rgps,6,15,45.6252140385,9.28230871553,231.085368573,0.0,0.0,0.0,0.0,0.0,0.0,0.0,0.0,0.0,0
1580139994173620996,483,1580139994172708034,/rgps,6,15,45.625222842,9.28230522177,231.093494112,0.0,0.0,0.0,0.0,0.0,0.0,0.0,0.0,0.0,0
1580139994273696561,484,1580139994273358106,/rgps,6,15,45.6252317121,9.28230168701,231.105085301,0.0,0.0,0.0,0.0,0.0,0.0,0.0,0.0,0.0,0
1580139994376710905,485,1580139994378434896,/rgps,6,15,45.6252405796,9.28229808718,231.117229826,0.0,0.0,0.0,0.0,0.0,0.0,0.0,0.0,0.0,0
1580139994482702648,486,1580139994481523990,/rgps,6,15,45.6252494678,9.28229448443,231.124499543,0.0,0.0,0.0,0.0,0.0,0.0,0.0,0.0,0.0,0
1580139994579571822,487,1580139994579243898,/rgps,6,15,45.625258435,9.28229077212,231.133147102,0.0,0.0,0.0,0.0,0.0,0.0,0.0,0.0,0.0,0
1580139994682683441,488,1580139994683585882,/rgps,6,15,45.6252673932,9.28228704602,231.142101207,0.0,0.0,0.0,0.0,0.0,0.0,0.0,0.0,0.0,0
1580139994788727849,489,1580139994790463924,/rgps,6,15,45.6252764208,9.28228323337,231.150590743,0.0,0.0,0.0,0.0,0.0,0.0,0.0,0.0,0.0,0
1580139994878359430,490,1580139994881367921,/rgps,6,15,45.6252854306,9.28227936457,231.157600849,0.0,0.0,0.0,0.0,0.0,0.0,0.0,0.0,0.0,0
1580139994982639267,491,1580139994980839967,/rgps,6,15,45.6252944405,9.28227543716,231.156426659,0.0,0.0,0.0,0.0,0.0,0.0,0.0,0.0,0.0,0
1580139995101334536,492,1580139995103185892,/rgps,6,15,45.6253035128,9.28227145405,231.162590019,0.0,0.0,0.0,0.0,0.0,0.0,0.0,0.0,0.0,0
1580139995176957678,493,1580139995177177906,/rgps,6,15,45.6253126334,9.28226739366,231.171229595,0.0,0.0,0.0,0.0,0.0,0.0,0.0,0.0,0.0,0
1580139995280158501,494,1580139995279350042,/rgps,6,15,45.6253217626,9.28226329284,231.174836171,0.0,0.0,0.0,0.0,0.0,0.0,0.0,0.0,0.0,0
1580139995380351848,495,1580139995380430936,/rgps,6,15,45.6253309149,9.28225913733,231.170282186,0.0,0.0,0.0,0.0,0.0,0.0,0.0,0.0,0.0,0
1580139995483376738,496,1580139995485277891,/rgps,6,15,45.625340073,9.28225496674,231.174627256,0.0,0.0,0.0,0.0,0.0,0.0,0.0,0.0,0.0,0
1580139995571165261,497,1580139995572268009,/rgps,6,15,45.6253492366,9.28225076094,231.178772222,0.0,0.0,0.0,0.0,0.0,0.0,0.0,0.0,0.0,0
1580139995680293283,498,1580139995678992986,/rgps,6,15,45.6253584206,9.28224653917,231.181456946,0.0,0.0,0.0,0.0,0.0,0.0,0.0,0.0,0.0,0
1580139995783084882,499,1580139995785190105,/rgps,6,15,45.6253676699,9.28224226976,231.195022747,0.0,0.0,0.0,0.0,0.0,0.0,0.0,0.0,0.0,0
1580139995883406392,500,1580139995879895925,/rgps,6,15,45.6253770011,9.28223798492,231.19779835,0.0,0.0,0.0,0.0,0.0,0.0,0.0,0.0,0.0,0
1580139995986298707,501,1580139995987073898,/rgps,6,15,45.6253863042,9.28223370647,231.200151252,0.0,0.0,0.0,0.0,0.0,0.0,0.0,0.0,0.0,0
1580139996095370143,502,1580139996096375942,/rgps,6,15,45.6253955105,9.2822293879,231.207271422,0.0,0.0,0.0,0.0,0.0,0.0,0.0,0.0,0.0,0
1580139996171075607,503,1580139996172000885,/rgps,6,15,45.6254048526,9.28222506897,231.21523956,0.0,0.0,0.0,0.0,0.0,0.0,0.0,0.0,0.0,0
1580139996277098507,504,1580139996278225898,/rgps,6,15,45.6254142967,9.28222077732,231.220083355,0.0,0.0,0.0,0.0,0.0,0.0,0.0,0.0,0.0,0
1580139996386256145,505,1580139996385610103,/rgps,6,15,45.6254236833,9.28221650781,231.225345746,0.0,0.0,0.0,0.0,0.0,0.0,0.0,0.0,0.0,0
1580139996480122835,506,1580139996481879949,/rgps,6,15,45.6254330847,9.28221221004,231.220566272,0.0,0.0,0.0,0.0,0.0,0.0,0.0,0.0,0.0,0
1580139996572267684,507,1580139996574333906,/rgps,6,15,45.6254425033,9.28220792976,231.215420969,0.0,0.0,0.0,0.0,0.0,0.0,0.0,0.0,0.0,0
1580139996680109254,508,1580139996679828882,/rgps,6,15,45.6254519217,9.28220365271,231.218267127,0.0,0.0,0.0,0.0,0.0,0.0,0.0,0.0,0.0,0
1580139996777169562,509,1580139996779582977,/rgps,6,15,45.6254614449,9.28219937486,231.225230739,0.0,0.0,0.0,0.0,0.0,0.0,0.0,0.0,0.0,0
1580139996880306512,510,1580139996880626916,/rgps,6,15,45.6254710366,9.28219521773,231.223639877,0.0,0.0,0.0,0.0,0.0,0.0,0.0,0.0,0.0,0
1580139996977537434,511,1580139996977885961,/rgps,6,15,45.6254806134,9.28219106616,231.222355092,0.0,0.0,0.0,0.0,0.0,0.0,0.0,0.0,0.0,0
1580139997110859938,512,1580139997112639904,/rgps,6,15,45.6254901734,9.2821869449,231.227019251,0.0,0.0,0.0,0.0,0.0,0.0,0.0,0.0,0.0,0
1580139997174604776,513,1580139997175261020,/rgps,6,15,45.6254998275,9.28218296075,231.233791008,0.0,0.0,0.0,0.0,0.0,0.0,0.0,0.0,0.0,0
1580139997268534871,514,1580139997269669055,/rgps,6,15,45.6255095601,9.28217909674,231.232086635,0.0,0.0,0.0,0.0,0.0,0.0,0.0,0.0,0.0,0
1580139997371511535,515,1580139997373233079,/rgps,6,15,45.6255193502,9.28217525927,231.24062958,0.0,0.0,0.0,0.0,0.0,0.0,0.0,0.0,0.0,0
1580139997474417869,516,1580139997474399089,/rgps,6,15,45.6255291138,9.28217157849,231.237795124,0.0,0.0,0.0,0.0,0.0,0.0,0.0,0.0,0.0,0
1580139997571411053,517,1580139997573538064,/rgps,6,15,45.625538925,9.28216796919,231.234643095,0.0,0.0,0.0,0.0,0.0,0.0,0.0,0.0,0.0,0
1580139997671515883,518,1580139997670977115,/rgps,6,15,45.6255487867,9.28216437556,231.236358766,0.0,0.0,0.0,0.0,0.0,0.0,0.0,0.0,0.0,0
1580139997774537160,519,1580139997778568983,/rgps,6,15,45.6255586733,9.28216088396,231.242951365,0.0,0.0,0.0,0.0,0.0,0.0,0.0,0.0,0.0,0
1580139997877502117,520,1580139997879437923,/rgps,6,15,45.6255685754,9.28215750526,231.245609805,0.0,0.0,0.0,0.0,0.0,0.0,0.0,0.0,0.0,0
1580139997971812816,521,1580139997974282979,/rgps,6,15,45.6255784889,9.2821542128,231.252672155,0.0,0.0,0.0,0.0,0.0,0.0,0.0,0.0,0.0,0
1580139998084137915,522,1580139998084342002,/rgps,6,15,45.6255884662,9.28215099051,231.259116177,0.0,0.0,0.0,0.0,0.0,0.0,0.0,0.0,0.0,0
1580139998166582310,523,1580139998169131040,/rgps,6,15,45.6255984194,9.28214782737,231.270687795,0.0,0.0,0.0,0.0,0.0,0.0,0.0,0.0,0.0,0
1580139998277397675,524,1580139998278130054,/rgps,6,15,45.6256084518,9.28214479072,231.27984542,0.0,0.0,0.0,0.0,0.0,0.0,0.0,0.0,0.0,0
1580139998378125807,525,1580139998379250049,/rgps,6,15,45.6256185827,9.28214193354,231.273739467,0.0,0.0,0.0,0.0,0.0,0.0,0.0,0.0,0.0,0
1580139998475050090,526,1580139998477075099,/rgps,6,15,45.6256286612,9.28213910586,231.279890475,0.0,0.0,0.0,0.0,0.0,0.0,0.0,0.0,0.0,0
1580139998572280832,527,1580139998574182033,/rgps,6,15,45.6256388015,9.28213633649,231.28503029,0.0,0.0,0.0,0.0,0.0,0.0,0.0,0.0,0.0,0
1580139998678520492,528,1580139998678271055,/rgps,6,15,45.6256489635,9.28213370162,231.284249454,0.0,0.0,0.0,0.0,0.0,0.0,0.0,0.0,0.0,0
1580139998790581860,529,1580139998791181087,/rgps,6,15,45.6256591572,9.28213116096,231.284572702,0.0,0.0,0.0,0.0,0.0,0.0,0.0,0.0,0.0,0
1580139998878448551,530,1580139998876895904,/rgps,6,15,45.6256693671,9.28212873662,231.284386013,0.0,0.0,0.0,0.0,0.0,0.0,0.0,0.0,0.0,0
1580139998975698674,531,1580139998977847099,/rgps,6,15,45.6256796707,9.28212637274,231.294288742,0.0,0.0,0.0,0.0,0.0,0.0,0.0,0.0,0.0,0
1580139999096739351,532,1580139999097841978,/rgps,6,15,45.6256899902,9.282124108,231.297698187,0.0,0.0,0.0,0.0,0.0,0.0,0.0,0.0,0.0,0
1580139999172368501,533,1580139999170325994,/rgps,6,15,45.6257003525,9.28212197503,231.295388697,0.0,0.0,0.0,0.0,0.0,0.0,0.0,0.0,0.0,0
1580139999275463131,534,1580139999276411056,/rgps,6,15,45.6257107032,9.28211987941,231.293987974,0.0,0.0,0.0,0.0,0.0,0.0,0.0,0.0,0.0,0
1580139999376065602,535,1580139999379369974,/rgps,6,15,45.6257210995,9.28211787645,231.301898149,0.0,0.0,0.0,0.0,0.0,0.0,0.0,0.0,0.0,0
1580139999497297023,536,1580139999499490022,/rgps,6,15,45.6257315249,9.28211592833,231.315913652,0.0,0.0,0.0,0.0,0.0,0.0,0.0,0.0,0.0,0
1580139999572789544,537,1580139999573857069,/rgps,6,15,45.6257419535,9.28211411096,231.321592045,0.0,0.0,0.0,0.0,0.0,0.0,0.0,0.0,0.0,0
1580139999672951631,538,1580139999675415992,/rgps,6,15,45.6257524117,9.2821122713,231.337183087,0.0,0.0,0.0,0.0,0.0,0.0,0.0,0.0,0.0,0
1580139999779189207,539,1580139999781528949,/rgps,6,15,45.6257628988,9.28211060597,231.344722444,0.0,0.0,0.0,0.0,0.0,0.0,0.0,0.0,0.0,0
1580139999876246757,540,1580139999877334117,/rgps,6,15,45.6257734445,9.28210906842,231.345601783,0.0,0.0,0.0,0.0,0.0,0.0,0.0,0.0,0.0,0
1580139999982171904,541,1580139999982824087,/rgps,6,15,45.6257839975,9.28210757692,231.357992991,0.0,0.0,0.0,0.0,0.0,0.0,0.0,0.0,0.0,0
1580140000085166560,542,1580140000086155891,/rgps,6,15,45.6257945579,9.28210613063,231.370967879,0.0,0.0,0.0,0.0,0.0,0.0,0.0,0.0,0.0,0
1580140000174875068,543,1580140000177795886,/rgps,6,15,45.6258051883,9.2821047957,231.378338663,0.0,0.0,0.0,0.0,0.0,0.0,0.0,0.0,0.0,0
1580140000276087950,544,1580140000278302907,/rgps,6,15,45.6258157934,9.282103522,231.381803876,0.0,0.0,0.0,0.0,0.0,0.0,0.0,0.0,0.0,0
1580140000377838929,545,1580140000381113052,/rgps,6,15,45.6258264425,9.28210233252,231.388303529,0.0,0.0,0.0,0.0,0.0,0.0,0.0,0.0,0.0,0
1580140000476215447,546,1580140000477899074,/rgps,6,15,45.6258371299,9.28210121719,231.398645486,0.0,0.0,0.0,0.0,0.0,0.0,0.0,0.0,0.0,0
1580140000570230698,547,1580140000572326898,/rgps,6,15,45.6258478774,9.28210012348,231.407404678,0.0,0.0,0.0,0.0,0.0,0.0,0.0,0.0,0.0,0
1580140000673212437,548,1580140000673060894,/rgps,6,15,45.6258586208,9.28209911563,231.413625399,0.0,0.0,0.0,0.0,0.0,0.0,0.0,0.0,0.0,0
1580140000770358250,549,1580140000771991014,/rgps,6,15,45.6258693012,9.28209818671,231.421123326,0.0,0.0,0.0,0.0,0.0,0.0,0.0,0.0,0.0,0
1580140000876384284,550,1580140000878068923,/rgps,6,15,45.6258800244,9.28209732329,231.422093245,0.0,0.0,0.0,0.0,0.0,0.0,0.0,0.0,0.0,0
1580140000976287327,551,1580140000976864099,/rgps,6,15,45.6258907103,9.28209650962,231.431073229,0.0,0.0,0.0,0.0,0.0,0.0,0.0,0.0,0.0,0
1580140001082359558,552,1580140001082199096,/rgps,6,15,45.6259015138,9.28209576453,231.441254803,0.0,0.0,0.0,0.0,0.0,0.0,0.0,0.0,0.0,0
1580140001170275068,553,1580140001170970916,/rgps,6,15,45.6259123998,9.2820950977,231.449543484,0.0,0.0,0.0,0.0,0.0,0.0,0.0,0.0,0.0,0
1580140001282499693,554,1580140001283217906,/rgps,6,15,45.6259232364,9.28209445074,231.455488438,0.0,0.0,0.0,0.0,0.0,0.0,0.0,0.0,0.0,0
1580140001382525061,555,1580140001384733915,/rgps,6,15,45.6259339989,9.2820938324,231.456962914,0.0,0.0,0.0,0.0,0.0,0.0,0.0,0.0,0.0,0
1580140001479592888,556,1580140001476990938,/rgps,6,15,45.6259448169,9.28209330907,231.460342973,0.0,0.0,0.0,0.0,0.0,0.0,0.0,0.0,0.0,0
1580140001588597459,557,1580140001587130069,/rgps,6,15,45.6259557528,9.28209292858,231.466094909,0.0,0.0,0.0,0.0,0.0,0.0,0.0,0.0,0.0,0
1580140001679543473,558,1580140001676466941,/rgps,6,15,45.6259667477,9.28209252286,231.482625121,0.0,0.0,0.0,0.0,0.0,0.0,0.0,0.0,0.0,0
1580140001785583454,559,1580140001786680936,/rgps,6,15,45.6259776537,9.2820921313,231.491917658,0.0,0.0,0.0,0.0,0.0,0.0,0.0,0.0,0.0,0
1580140001882812353,560,1580140001883949995,/rgps,6,15,45.6259886112,9.28209194671,231.483703974,0.0,0.0,0.0,0.0,0.0,0.0,0.0,0.0,0.0,0
1580140001979802629,561,1580140001979895114,/rgps,6,15,45.6259995445,9.28209168139,231.49275943,0.0,0.0,0.0,0.0,0.0,0.0,0.0,0.0,0.0,0
1580140002082868129,562,1580140002084908008,/rgps,6,15,45.6260105822,9.28209153581,231.509920905,0.0,0.0,0.0,0.0,0.0,0.0,0.0,0.0,0.0,0
1580140002182795669,563,1580140002181512117,/rgps,6,15,45.6260216106,9.28209150579,231.508782298,0.0,0.0,0.0,0.0,0.0,0.0,0.0,0.0,0.0,0
1580140002276981269,564,1580140002276566028,/rgps,6,15,45.6260325896,9.28209151634,231.502995435,0.0,0.0,0.0,0.0,0.0,0.0,0.0,0.0,0.0,0
1580140002385990628,565,1580140002383766889,/rgps,6,15,45.6260436631,9.28209151253,231.513020691,0.0,0.0,0.0,0.0,0.0,0.0,0.0,0.0,0.0,0
1580140002479906645,566,1580140002478051900,/rgps,6,15,45.6260547477,9.28209156152,231.531032556,0.0,0.0,0.0,0.0,0.0,0.0,0.0,0.0,0.0,0
1580140002577131200,567,1580140002573632955,/rgps,6,15,45.6260658215,9.28209163138,231.545098836,0.0,0.0,0.0,0.0,0.0,0.0,0.0,0.0,0.0,0
1580140002680228937,568,1580140002678350925,/rgps,6,15,45.6260768967,9.28209175846,231.564656262,0.0,0.0,0.0,0.0,0.0,0.0,0.0,0.0,0.0,0
1580140002777248359,569,1580140002778302907,/rgps,6,15,45.6260881029,9.28209209177,231.56346699,0.0,0.0,0.0,0.0,0.0,0.0,0.0,0.0,0.0,0
1580140002886928549,570,1580140002891292095,/rgps,6,15,45.6260991648,9.28209216793,231.588568439,0.0,0.0,0.0,0.0,0.0,0.0,0.0,0.0,0.0,0
1580140002983526212,571,1580140002986552000,/rgps,6,15,45.6261103315,9.28209250178,231.599026464,0.0,0.0,0.0,0.0,0.0,0.0,0.0,0.0,0.0,0
1580140003088822773,572,1580140003090132951,/rgps,6,15,45.6261214906,9.28209283127,231.605039301,0.0,0.0,0.0,0.0,0.0,0.0,0.0,0.0,0.0,0
1580140003183701423,573,1580140003186098098,/rgps,6,15,45.6261326748,9.28209324542,231.611288859,0.0,0.0,0.0,0.0,0.0,0.0,0.0,0.0,0.0,0
1580140003265681731,574,1580140003266421079,/rgps,6,15,45.6261439484,9.2820938009,231.606412268,0.0,0.0,0.0,0.0,0.0,0.0,0.0,0.0,0.0,0
1580140003374733601,575,1580140003376163959,/rgps,6,15,45.6261552121,9.28209423532,231.621826038,0.0,0.0,0.0,0.0,0.0,0.0,0.0,0.0,0.0,0
1580140003474865050,576,1580140003472340106,/rgps,6,15,45.6261665225,9.28209473994,231.631793438,0.0,0.0,0.0,0.0,0.0,0.0,0.0,0.0,0.0,0
1580140003562689256,577,1580140003564691066,/rgps,6,15,45.626177816,9.28209525115,231.652359526,0.0,0.0,0.0,0.0,0.0,0.0,0.0,0.0,0.0,0
1580140003676486218,578,1580140003679202079,/rgps,6,15,45.626189122,9.28209584359,231.657579297,0.0,0.0,0.0,0.0,0.0,0.0,0.0,0.0,0.0,0
1580140003784152195,579,1580140003786537885,/rgps,6,15,45.62620041,9.28209658973,231.657666937,0.0,0.0,0.0,0.0,0.0,0.0,0.0,0.0,0.0,0
1580140003878276281,580,1580140003880274057,/rgps,6,15,45.6262118268,9.28209724625,231.672901825,0.0,0.0,0.0,0.0,0.0,0.0,0.0,0.0,0.0,0
1580140003978301366,581,1580140003978513956,/rgps,6,15,45.6262232392,9.28209814333,231.665637353,0.0,0.0,0.0,0.0,0.0,0.0,0.0,0.0,0.0,0
1580140004078395719,582,1580140004079704999,/rgps,6,15,45.6262346076,9.28209904138,231.655215352,0.0,0.0,0.0,0.0,0.0,0.0,0.0,0.0,0.0,0
1580140004163271673,583,1580140004166903018,/rgps,6,15,45.6262459188,9.28209979328,231.660263117,0.0,0.0,0.0,0.0,0.0,0.0,0.0,0.0,0.0,0
1580140004266527802,584,1580140004268336057,/rgps,6,15,45.6262573172,9.28210063848,231.666319875,0.0,0.0,0.0,0.0,0.0,0.0,0.0,0.0,0.0,0
1580140004375647780,585,1580140004377325057,/rgps,6,15,45.6262687883,9.28210148623,231.671858252,0.0,0.0,0.0,0.0,0.0,0.0,0.0,0.0,0.0,0
1580140004475688871,586,1580140004476202011,/rgps,6,15,45.6262801807,9.28210249323,231.673117375,0.0,0.0,0.0,0.0,0.0,0.0,0.0,0.0,0.0,0
1580140004597045046,587,1580140004596573114,/rgps,6,15,45.6262916147,9.28210340816,231.683489911,0.0,0.0,0.0,0.0,0.0,0.0,0.0,0.0,0.0,0
1580140004678894556,588,1580140004676589012,/rgps,6,15,45.6263030827,9.28210443492,231.675588657,0.0,0.0,0.0,0.0,0.0,0.0,0.0,0.0,0.0,0
1580140004775703815,589,1580140004777606010,/rgps,6,15,45.6263145639,9.28210545186,231.68125037,0.0,0.0,0.0,0.0,0.0,0.0,0.0,0.0,0.0,0
1580140004881799054,590,1580140004880410909,/rgps,6,15,45.6263261128,9.28210648978,231.684829404,0.0,0.0,0.0,0.0,0.0,0.0,0.0,0.0,0.0,0
1580140004975837278,591,1580140004976005077,/rgps,6,15,45.626337638,9.28210753898,231.694990394,0.0,0.0,0.0,0.0,0.0,0.0,0.0,0.0,0.0,0
1580140005075920525,592,1580140005077265977,/rgps,6,15,45.6263491211,9.28210863474,231.699321185,0.0,0.0,0.0,0.0,0.0,0.0,0.0,0.0,0.0,0
1580140005170015787,593,1580140005170205116,/rgps,6,15,45.6263606343,9.28210974322,231.706993409,0.0,0.0,0.0,0.0,0.0,0.0,0.0,0.0,0.0,0
1580140005264100356,594,1580140005265470981,/rgps,6,15,45.6263721773,9.28211088943,231.709851656,0.0,0.0,0.0,0.0,0.0,0.0,0.0,0.0,0.0,0
1580140005373027376,595,1580140005373539924,/rgps,6,15,45.6263837565,9.28211202572,231.725960891,0.0,0.0,0.0,0.0,0.0,0.0,0.0,0.0,0.0,0
1580140005470223240,596,1580140005470855951,/rgps,6,15,45.6263952981,9.28211318105,231.734216348,0.0,0.0,0.0,0.0,0.0,0.0,0.0,0.0,0.0,0
1580140005571240071,597,1580140005573148012,/rgps,6,15,45.626406819,9.28211433458,231.741682498,0.0,0.0,0.0,0.0,0.0,0.0,0.0,0.0,0.0,0
1580140005697341125,598,1580140005695382118,/rgps,6,15,45.6264183905,9.28211556993,231.740977473,0.0,0.0,0.0,0.0,0.0,0.0,0.0,0.0,0.0,0
1580140005779399982,599,1580140005779576063,/rgps,6,15,45.6264299999,9.2821168276,231.749713662,0.0,0.0,0.0,0.0,0.0,0.0,0.0,0.0,0.0,0
1580140005879391841,600,1580140005880108118,/rgps,6,15,45.6264414876,9.2821179986,231.77490267,0.0,0.0,0.0,0.0,0.0,0.0,0.0,0.0,0.0,0
1580140005979538432,601,1580140005979485034,/rgps,6,15,45.6264530661,9.28211929698,231.773562529,0.0,0.0,0.0,0.0,0.0,0.0,0.0,0.0,0.0,0
1580140006079612633,602,1580140006082026004,/rgps,6,15,45.6264645478,9.28212062942,231.779024427,0.0,0.0,0.0,0.0,0.0,0.0,0.0,0.0,0.0,0
1580140006161930871,603,1580140006167037963,/rgps,6,15,45.6264760132,9.28212195652,231.782192088,0.0,0.0,0.0,0.0,0.0,0.0,0.0,0.0,0.0,0
1580140006273563253,604,1580140006273814916,/rgps,6,15,45.6264873521,9.28212328077,231.79870212,0.0,0.0,0.0,0.0,0.0,0.0,0.0,0.0,0.0,0
1580140006382832803,605,1580140006382746934,/rgps,6,15,45.6264987168,9.28212462449,231.806912386,0.0,0.0,0.0,0.0,0.0,0.0,0.0,0.0,0.0,0
1580140006476949157,606,1580140006476135015,/rgps,6,15,45.6265100539,9.28212600164,231.803079896,0.0,0.0,0.0,0.0,0.0,0.0,0.0,0.0,0.0,0
1580140006573782060,607,1580140006571737051,/rgps,6,15,45.6265212717,9.28212733767,231.814597098,0.0,0.0,0.0,0.0,0.0,0.0,0.0,0.0,0.0,0
1580140006667620348,608,1580140006669138908,/rgps,6,15,45.6265324681,9.28212869273,231.828749532,0.0,0.0,0.0,0.0,0.0,0.0,0.0,0.0,0.0,0
1580140006782975529,609,1580140006781678915,/rgps,6,15,45.6265436056,9.28213005341,231.83985957,0.0,0.0,0.0,0.0,0.0,0.0,0.0,0.0,0.0,0
1580140006883134277,610,1580140006882560014,/rgps,6,15,45.6265546882,9.28213142526,231.853320449,0.0,0.0,0.0,0.0,0.0,0.0,0.0,0.0,0.0,0
1580140006977302030,611,1580140006977432966,/rgps,6,15,45.6265657085,9.28213278169,231.86648299,0.0,0.0,0.0,0.0,0.0,0.0,0.0,0.0,0.0,0
1580140007083497226,612,1580140007085607051,/rgps,6,15,45.6265768265,9.28213420196,231.868474864,0.0,0.0,0.0,0.0,0.0,0.0,0.0,0.0,0.0,0
1580140007183486593,613,1580140007182548046,/rgps,6,15,45.6265878385,9.28213554506,231.895236322,0.0,0.0,0.0,0.0,0.0,0.0,0.0,0.0,0.0,0
1580140007268325486,614,1580140007270947933,/rgps,6,15,45.6265988705,9.28213702334,231.894435474,0.0,0.0,0.0,0.0,0.0,0.0,0.0,0.0,0.0,0
1580140007368427353,615,1580140007370039939,/rgps,6,15,45.626609894,9.28213835569,231.88741693,0.0,0.0,0.0,0.0,0.0,0.0,0.0,0.0,0.0,0
1580140007471561811,616,1580140007473757028,/rgps,6,15,45.6266208059,9.28213980689,231.905679771,0.0,0.0,0.0,0.0,0.0,0.0,0.0,0.0,0.0,0
1580140007566330738,617,1580140007567830085,/rgps,6,15,45.6266317497,9.28214126402,231.90994431,0.0,0.0,0.0,0.0,0.0,0.0,0.0,0.0,0.0,0
1580140007671891445,618,1580140007671462059,/rgps,6,15,45.6266427873,9.28214265529,231.912638593,0.0,0.0,0.0,0.0,0.0,0.0,0.0,0.0,0.0,0
1580140007775071907,619,1580140007774537086,/rgps,6,15,45.6266538028,9.28214404851,231.913195765,0.0,0.0,0.0,0.0,0.0,0.0,0.0,0.0,0.0,0
1580140007890300704,620,1580140007892220973,/rgps,6,15,45.6266647535,9.282145466,231.923746404,0.0,0.0,0.0,0.0,0.0,0.0,0.0,0.0,0.0,0
1580140007984301129,621,1580140007983779907,/rgps,6,15,45.6266757368,9.28214692746,231.933682825,0.0,0.0,0.0,0.0,0.0,0.0,0.0,0.0,0.0,0
1580140008089139214,622,1580140008091866970,/rgps,6,15,45.6266867264,9.28214831602,231.93827526,0.0,0.0,0.0,0.0,0.0,0.0,0.0,0.0,0.0,0
1580140008169468735,623,1580140008171694993,/rgps,6,15,45.6266976587,9.28214976588,231.934076227,0.0,0.0,0.0,0.0,0.0,0.0,0.0,0.0,0.0,0
1580140008275519333,624,1580140008272367000,/rgps,6,15,45.6267086422,9.2821512425,231.943500206,0.0,0.0,0.0,0.0,0.0,0.0,0.0,0.0,0.0,0
1580140008381649107,625,1580140008381438970,/rgps,6,15,45.6267196596,9.28215274036,231.952035474,0.0,0.0,0.0,0.0,0.0,0.0,0.0,0.0,0.0,0
1580140008478705856,626,1580140008480895042,/rgps,6,15,45.6267306431,9.2821542366,231.955906851,0.0,0.0,0.0,0.0,0.0,0.0,0.0,0.0,0.0,0
1580140008576062332,627,1580140008576606035,/rgps,6,15,45.6267416541,9.28215567782,231.96369316,0.0,0.0,0.0,0.0,0.0,0.0,0.0,0.0,0.0,0
1580140008672789127,628,1580140008675560951,/rgps,6,15,45.6267526954,9.28215712261,231.977200818,0.0,0.0,0.0,0.0,0.0,0.0,0.0,0.0,0.0,0
1580140008782039446,629,1580140008780076980,/rgps,6,15,45.6267637487,9.28215849387,231.993501945,0.0,0.0,0.0,0.0,0.0,0.0,0.0,0.0,0.0,0
1580140008876278279,630,1580140008877820968,/rgps,6,15,45.6267748437,9.28215993732,231.99320294,0.0,0.0,0.0,0.0,0.0,0.0,0.0,0.0,0.0,0
1580140008976393984,631,1580140008978411912,/rgps,6,15,45.626785888,9.28216134813,232.001912238,0.0,0.0,0.0,0.0,0.0,0.0,0.0,0.0,0.0,0
1580140009091663699,632,1580140009088259935,/rgps,6,15,45.6267968346,9.28216279726,232.010661239,0.0,0.0,0.0,0.0,0.0,0.0,0.0,0.0,0.0,0
1580140009164371877,633,1580140009166126966,/rgps,6,15,45.6268079167,9.28216416752,232.00491258,0.0,0.0,0.0,0.0,0.0,0.0,0.0,0.0,0.0,0
1580140009276496795,634,1580140009273391962,/rgps,6,15,45.6268190103,9.28216561451,232.004151592,0.0,0.0,0.0,0.0,0.0,0.0,0.0,0.0,0.0,0
1580140009381479750,635,1580140009380264043,/rgps,6,15,45.626830314,9.28216618085,232.120372169,0.0,0.0,0.0,0.0,0.0,0.0,0.0,0.0,0.0,0
1580140009489137675,636,1580140009491379022,/rgps,6,15,45.6268417018,9.28216675301,232.229230984,0.0,0.0,0.0,0.0,0.0,0.0,0.0,0.0,0.0,0
1580140009567934903,637,1580140009568577051,/rgps,6,15,45.6268531108,9.28216742973,232.291266484,0.0,0.0,0.0,0.0,0.0,0.0,0.0,0.0,0.0,0
1580140009671091246,638,1580140009671427011,/rgps,6,15,45.6268646396,9.28216812504,232.32991468,0.0,0.0,0.0,0.0,0.0,0.0,0.0,0.0,0.0,0
1580140009771190008,639,1580140009771384954,/rgps,6,15,45.6268761607,9.28216881325,232.393835664,0.0,0.0,0.0,0.0,0.0,0.0,0.0,0.0,0.0,0
1580140009877242286,640,1580140009877707004,/rgps,6,15,45.6268876454,9.28216949231,232.469018054,0.0,0.0,0.0,0.0,0.0,0.0,0.0,0.0,0.0,0
1580140009979307343,641,1580140009979213953,/rgps,6,15,45.6268992138,9.28217026301,232.53343455,0.0,0.0,0.0,0.0,0.0,0.0,0.0,0.0,0.0,0
1580140010092397135,642,1580140010092358112,/rgps,6,15,45.6269107831,9.28217096679,232.592993893,0.0,0.0,0.0,0.0,0.0,0.0,0.0,0.0,0.0,0
1580140010171519168,643,1580140010168590068,/rgps,6,15,45.6269223447,9.28217175547,232.638527866,0.0,0.0,0.0,0.0,0.0,0.0,0.0,0.0,0.0,0
1580140010268490961,644,1580140010270694971,/rgps,6,15,45.6269339268,9.28217268032,232.697304684,0.0,0.0,0.0,0.0,0.0,0.0,0.0,0.0,0.0,0
1580140010368639139,645,1580140010366771936,/rgps,6,15,45.6269454444,9.28217348527,232.752644994,0.0,0.0,0.0,0.0,0.0,0.0,0.0,0.0,0.0,0
1580140010468820084,646,1580140010469885110,/rgps,6,15,45.6269570292,9.28217422599,232.792042629,0.0,0.0,0.0,0.0,0.0,0.0,0.0,0.0,0.0,0
1580140010571965047,647,1580140010573391914,/rgps,6,15,45.626968636,9.28217517523,232.840415747,0.0,0.0,0.0,0.0,0.0,0.0,0.0,0.0,0.0,0
1580140010671962826,648,1580140010671372890,/rgps,6,15,45.6269802789,9.28217607065,232.880556866,0.0,0.0,0.0,0.0,0.0,0.0,0.0,0.0,0.0,0
1580140010781109257,649,1580140010781363010,/rgps,6,15,45.6269918635,9.28217703673,232.926553842,0.0,0.0,0.0,0.0,0.0,0.0,0.0,0.0,0.0,0
1580140010878202421,650,1580140010880564928,/rgps,6,15,45.6270034705,9.2821780539,232.967410665,0.0,0.0,0.0,0.0,0.0,0.0,0.0,0.0,0.0,0
1580140010972197062,651,1580140010972698926,/rgps,6,15,45.6270150605,9.28217907936,232.996982767,0.0,0.0,0.0,0.0,0.0,0.0,0.0,0.0,0.0,0
1580140011078209598,652,1580140011080090045,/rgps,6,15,45.6270266707,9.28218014433,233.041902999,0.0,0.0,0.0,0.0,0.0,0.0,0.0,0.0,0.0,0
1580140011178153403,653,1580140011179346084,/rgps,6,15,45.6270383124,9.2821812208,233.082848966,0.0,0.0,0.0,0.0,0.0,0.0,0.0,0.0,0.0,0
1580140011279175998,654,1580140011281127929,/rgps,6,15,45.6270498456,9.28218229131,233.122188303,0.0,0.0,0.0,0.0,0.0,0.0,0.0,0.0,0.0,0
1580140011381158739,655,1580140011377676010,/rgps,6,15,45.6270614763,9.2821833647,233.150905923,0.0,0.0,0.0,0.0,0.0,0.0,0.0,0.0,0.0,0
1580140011478295493,656,1580140011479312896,/rgps,6,15,45.6270731275,9.2821844154,233.1905117,0.0,0.0,0.0,0.0,0.0,0.0,0.0,0.0,0.0,0
1580140011578288470,657,1580140011579253911,/rgps,6,15,45.6270847742,9.282185499,233.235657198,0.0,0.0,0.0,0.0,0.0,0.0,0.0,0.0,0.0,0
1580140011675500590,658,1580140011675976037,/rgps,6,15,45.6270964002,9.28218662031,233.276132266,0.0,0.0,0.0,0.0,0.0,0.0,0.0,0.0,0.0,0
1580140011805899196,659,1580140011806351900,/rgps,6,15,45.6271080355,9.28218778352,233.303688504,0.0,0.0,0.0,0.0,0.0,0.0,0.0,0.0,0.0,0
1580140011873339150,660,1580140011879340887,/rgps,6,15,45.6271196496,9.28218893009,233.33036246,0.0,0.0,0.0,0.0,0.0,0.0,0.0,0.0,0.0,0
